[{"lat": 32.5791817, "lon": -86.49965460000001, "name": "Autauga , AL", "state_name": " AL"}, {"lat": 30.6010744, "lon": -87.77633329999999, "name": "Baldwin , AL", "state_name": " AL"}, {"lat": 31.8172896, "lon": -85.35496499999999, "name": "Barbour , AL", "state_name": " AL"}, {"lat": 32.9562798, "lon": -87.14228949999999, "name": "Bibb , AL", "state_name": " AL"}, {"lat": 34.0145152, "lon": -86.49965460000001, "name": "Blount , AL", "state_name": " AL"}, {"lat": 32.0573536, "lon": -85.7256372, "name": "Bullock , AL", "state_name": " AL"}, {"lat": 32.0895908, "lon": -88.2219652, "name": "Butler , AL", "state_name": " AL"}, {"lat": 33.7701576, "lon": -85.80766, "name": "Calhoun , AL", "state_name": " AL"}, {"lat": 32.9028048, "lon": -85.35496499999999, "name": "Chambers , AL", "state_name": " AL"}, {"lat": 34.7570342, "lon": -87.9728143, "name": "Cherokee , AL", "state_name": " AL"}, {"lat": 32.944392, "lon": -86.6611083, "name": "Chilton , AL", "state_name": " AL"}, {"lat": 32.0716631, "lon": -88.24611829999999, "name": "Choctaw , AL", "state_name": " AL"}, {"lat": 31.7002461, "lon": -87.77633329999999, "name": "Clarke , AL", "state_name": " AL"}, {"lat": 33.7026013, "lon": -86.5997096, "name": "Clay , AL", "state_name": " AL"}, {"lat": 33.6481611, "lon": -85.62968169999999, "name": "Cleburne , AL", "state_name": " AL"}, {"lat": 31.4751172, "lon": -86.0121573, "name": "Coffee , AL", "state_name": " AL"}, {"lat": 34.7117567, "lon": -87.89424509999999, "name": "Colbert , AL", "state_name": " AL"}, {"lat": 31.501571, "lon": -86.9824288, "name": "Conecuh , AL", "state_name": " AL"}, {"lat": 32.8897772, "lon": -86.2196937, "name": "Coosa , AL", "state_name": " AL"}, {"lat": 31.3066438, "lon": -86.49965460000001, "name": "Covington , AL", "state_name": " AL"}, {"lat": 31.6671872, "lon": -86.3376761, "name": "Crenshaw , AL", "state_name": " AL"}, {"lat": 34.1748208, "lon": -86.8436124, "name": "Cullman , AL", "state_name": " AL"}, {"lat": 31.4645298, "lon": -85.684578, "name": "Dale , AL", "state_name": " AL"}, {"lat": 32.2332138, "lon": -87.14228949999999, "name": "Dallas , AL", "state_name": " AL"}, {"lat": 34.5211397, "lon": -85.684578, "name": "DeKalb , AL", "state_name": " AL"}, {"lat": 32.5387448, "lon": -86.3149712, "name": "Elmore , AL", "state_name": " AL"}, {"lat": 31.1394734, "lon": -87.14228949999999, "name": "Escambia , AL", "state_name": " AL"}, {"lat": 34.0455341, "lon": -86.05296039999999, "name": "Etowah , AL", "state_name": " AL"}, {"lat": 33.6845539, "lon": -87.8308522, "name": "Fayette , AL", "state_name": " AL"}, {"lat": 32.4784706, "lon": -85.8024562, "name": "Franklin , AL", "state_name": " AL"}, {"lat": 31.0329572, "lon": -85.8638242, "name": "Geneva , AL", "state_name": " AL"}, {"lat": 32.9718107, "lon": -87.9334803, "name": "Greene , AL", "state_name": " AL"}, {"lat": 32.7859102, "lon": -87.6186379, "name": "Hale , AL", "state_name": " AL"}, {"lat": 31.4469377, "lon": -85.1894045, "name": "Henry , AL", "state_name": " AL"}, {"lat": 34.1414925, "lon": -87.2580686, "name": "Houston , AL", "state_name": " AL"}, {"lat": 31.5090521, "lon": -87.8944435, "name": "Jackson , AL", "state_name": " AL"}, {"lat": 33.4914122, "lon": -86.9824288, "name": "Jefferson , AL", "state_name": " AL"}, {"lat": 33.6923649, "lon": -88.0900762, "name": "Lamar , AL", "state_name": " AL"}, {"lat": 34.8840876, "lon": -87.658113, "name": "Lauderdale , AL", "state_name": " AL"}, {"lat": 34.567428, "lon": -87.30161319999999, "name": "Lawrence , AL", "state_name": " AL"}, {"lat": 32.5888702, "lon": -85.39627689999999, "name": "Lee , AL", "state_name": " AL"}, {"lat": 34.78000720000001, "lon": -86.9423801, "name": "Limestone , AL", "state_name": " AL"}, {"lat": 32.221464, "lon": -86.6611083, "name": "Lowndes , AL", "state_name": " AL"}, {"lat": 32.3731182, "lon": -85.684578, "name": "Macon , AL", "state_name": " AL"}, {"lat": 34.6992579, "lon": -86.74833180000002, "name": "Madison , AL", "state_name": " AL"}, {"lat": 32.2459085, "lon": -87.77633329999999, "name": "Marengo , AL", "state_name": " AL"}, {"lat": 32.6323536, "lon": -87.3191655, "name": "Marion , AL", "state_name": " AL"}, {"lat": 34.3652297, "lon": -86.3376761, "name": "Marshall , AL", "state_name": " AL"}, {"lat": 30.6953657, "lon": -88.0398912, "name": "Mobile , AL", "state_name": " AL"}, {"lat": 31.5119068, "lon": -87.460397, "name": "Monroe , AL", "state_name": " AL"}, {"lat": 32.3668052, "lon": -86.2999689, "name": "Montgomery , AL", "state_name": " AL"}, {"lat": 34.4240875, "lon": -86.86218269999999, "name": "Morgan , AL", "state_name": " AL"}, {"lat": 32.598888, "lon": -87.30161319999999, "name": "Perry , AL", "state_name": " AL"}, {"lat": 33.3339954, "lon": -88.0900762, "name": "Pickens , AL", "state_name": " AL"}, {"lat": 31.8395163, "lon": -86.0121573, "name": "Pike , AL", "state_name": " AL"}, {"lat": 32.8996333, "lon": -86.9112451, "name": "Randolph , AL", "state_name": " AL"}, {"lat": 32.3552497, "lon": -85.1894045, "name": "Russell , AL", "state_name": " AL"}, {"lat": 33.6530112, "lon": -86.3376761, "name": "St. Clair , AL", "state_name": " AL"}, {"lat": 33.1086539, "lon": -86.5835907, "name": "Shelby , AL", "state_name": " AL"}, {"lat": 32.6155551, "lon": -88.24611829999999, "name": "Sumter , AL", "state_name": " AL"}, {"lat": 33.4359416, "lon": -86.1058048, "name": "Talladega , AL", "state_name": " AL"}, {"lat": 32.9201244, "lon": -85.84862360000001, "name": "Tallapoosa , AL", "state_name": " AL"}, {"lat": 33.2098407, "lon": -87.56917349999999, "name": "Tuscaloosa , AL", "state_name": " AL"}, {"lat": 33.8563605, "lon": -87.30161319999999, "name": "Walker , AL", "state_name": " AL"}, {"lat": 31.3422346, "lon": -88.24611829999999, "name": "Washington , AL", "state_name": " AL"}, {"lat": 31.5084965, "lon": -86.87636189999999, "name": "Wilcox , AL", "state_name": " AL"}, {"lat": 34.1690087, "lon": -87.3413599, "name": "Winston , AL", "state_name": " AL"}, {"lat": 55.53880059999999, "lon": -161.8988535, "name": "Aleutians East Borough, AK", "state_name": " AK"}, {"lat": 52.3232697, "lon": -174.1596071, "name": "Aleutians West Census Area, AK", "state_name": " AK"}, {"lat": 61.2180556, "lon": -149.9002778, "name": "Anchorage Borough/municipality, AK", "state_name": " AK"}, {"lat": 61.09344600000001, "lon": -160.8640774, "name": "Bethel Census Area, AK", "state_name": " AK"}, {"lat": 58.7578504, "lon": -156.7792687, "name": "Bristol Bay Borough, AK", "state_name": " AK"}, {"lat": 63.82571729999999, "lon": -149.7317834, "name": "Denali Borough, AK", "state_name": " AK"}, {"lat": 59.80677919999999, "lon": -157.7242585, "name": "Dillingham Census Area, AK", "state_name": " AK"}, {"lat": 64.9526102, "lon": -146.4744155, "name": "Fairbanks North Star Borough, AK", "state_name": " AK"}, {"lat": 59.1392237, "lon": -135, "name": "Haines Borough, AK", "state_name": " AK"}, {"lat": 58.31765049999999, "lon": -136.0390896, "name": "Hoonah-Angoon Census Area, AK", "state_name": " AK"}, {"lat": 58.3019444, "lon": -134.4197222, "name": "Juneau Borough/city, AK", "state_name": " AK"}, {"lat": 60.0858486, "lon": -151.3822641, "name": "Kenai Peninsula Borough, AK", "state_name": " AK"}, {"lat": 55.5103345, "lon": -131.389286, "name": "Ketchikan Gateway Borough, AK", "state_name": " AK"}, {"lat": 57.53693430000001, "lon": -153.2659352, "name": "Kodiak Island Borough, AK", "state_name": " AK"}, {"lat": 58.0458356, "lon": -156.5982286, "name": "Lake and Peninsula Borough, AK", "state_name": " AK"}, {"lat": 62.2599347, "lon": -150.1729153, "name": "Matanuska-Susitna Borough, AK", "state_name": " AK"}, {"lat": 64.8329974, "lon": -164.2566019, "name": "Nome Census Area, AK", "state_name": " AK"}, {"lat": 69.05787579999999, "lon": -152.8628274, "name": "North Slope Borough, AK", "state_name": " AK"}, {"lat": 67.2872981, "lon": -160.0342625, "name": "Northwest Arctic Borough, AK", "state_name": " AK"}, {"lat": 56.8124267, "lon": -132.9554473, "name": "Petersburg Census Area, AK", "state_name": " AK"}, {"lat": 55.3242244, "lon": -132.6044581, "name": "Prince of Wales-Hyder Census Area, AK", "state_name": " AK"}, {"lat": 57.0530556, "lon": -135.33, "name": "Sitka Borough/city, AK", "state_name": " AK"}, {"lat": 59.4587786, "lon": -135.3179859, "name": "Skagway Municipality, AK", "state_name": " AK"}, {"lat": 63.9603869, "lon": -143.6296998, "name": "Southeast Fairbanks Census Area, AK", "state_name": " AK"}, {"lat": 61.4787707, "lon": -144.1147196, "name": "Valdez-Cordova Census Area, AK", "state_name": " AK"}, {"lat": 62.1458336, "lon": -162.8919191, "name": "Wade Hampton Census Area, AK", "state_name": " AK"}, {"lat": 56.4708333, "lon": -132.3766666, "name": "Wrangell Borough/city, AK", "state_name": " AK"}, {"lat": 59.54694439999999, "lon": -139.7272222, "name": "Yakutat Borough/city, AK", "state_name": " AK"}, {"lat": 65.8443667, "lon": -153.4302993, "name": "Yukon-Koyukuk Census Area, AK", "state_name": " AK"}, {"lat": 31.6906629, "lon": -109.1323499, "name": "Apache , AZ", "state_name": " AZ"}, {"lat": 32.1139688, "lon": -109.9211756, "name": "Cochise , AZ", "state_name": " AZ"}, {"lat": 35.6647545, "lon": -111.4752851, "name": "Coconino , AZ", "state_name": " AZ"}, {"lat": 33.6370567, "lon": -110.5215459, "name": "Gila , AZ", "state_name": " AZ"}, {"lat": 33.076805, "lon": -109.7591675, "name": "Graham , AZ", "state_name": " AZ"}, {"lat": 33.2405598, "lon": -109.2831531, "name": "Greenlee , AZ", "state_name": " AZ"}, {"lat": 34.0061091, "lon": -113.9536466, "name": "La Paz , AZ", "state_name": " AZ"}, {"lat": 33.0581063, "lon": -112.0476423, "name": "Maricopa , AZ", "state_name": " AZ"}, {"lat": 35.2143346, "lon": -113.7632828, "name": "Mohave , AZ", "state_name": " AZ"}, {"lat": 35.4019765, "lon": -110.1402594, "name": "Navajo , AZ", "state_name": " AZ"}, {"lat": 32.8961755, "lon": -109.8275815, "name": "Pima , AZ", "state_name": " AZ"}, {"lat": 33.37611, "lon": -110.75306, "name": "Pinal , AZ", "state_name": " AZ"}, {"lat": 33.22802, "lon": -112.173065, "name": "Santa Cruz , AZ", "state_name": " AZ"}, {"lat": 34.6463981, "lon": -112.4291464, "name": "Yavapai , AZ", "state_name": " AZ"}, {"lat": 32.6926512, "lon": -114.6276916, "name": "Yuma , AZ", "state_name": " AZ"}, {"lat": 35.20105, "lon": -91.8318334, "name": "Arkansas , AR", "state_name": " AR"}, {"lat": 33.1565939, "lon": -91.7538817, "name": "Ashley , AR", "state_name": " AR"}, {"lat": 33.5292786, "lon": -91.4970672, "name": "Baxter , AR", "state_name": " AR"}, {"lat": 34.5645371, "lon": -92.586828, "name": "Benton , AR", "state_name": " AR"}, {"lat": 36.3118662, "lon": -93.0175712, "name": "Boone , AR", "state_name": " AR"}, {"lat": 33.0981881, "lon": -93.6548983, "name": "Bradley , AR", "state_name": " AR"}, {"lat": 33.2195743, "lon": -93.1546104, "name": "Calhoun , AR", "state_name": " AR"}, {"lat": 36.2987495, "lon": -93.5003454, "name": "Carroll , AR", "state_name": " AR"}, {"lat": 33.2056751, "lon": -91.2865023, "name": "Chicot , AR", "state_name": " AR"}, {"lat": 34.0232374, "lon": -93.17796589999999, "name": "Clark , AR", "state_name": " AR"}, {"lat": 35.39674850000001, "lon": -91.7862521, "name": "Clay , AR", "state_name": " AR"}, {"lat": 35.4605769, "lon": -92.0665197, "name": "Cleburne , AR", "state_name": " AR"}, {"lat": 35.4214685, "lon": -92.7096079, "name": "Cleveland , AR", "state_name": " AR"}, {"lat": 33.1285176, "lon": -93.17796589999999, "name": "Columbia , AR", "state_name": " AR"}, {"lat": 35.0886963, "lon": -92.4421011, "name": "Conway , AR", "state_name": " AR"}, {"lat": 35.8260959, "lon": -90.6773046, "name": "Craighead , AR", "state_name": " AR"}, {"lat": 35.5762761, "lon": -94.315422, "name": "Crawford , AR", "state_name": " AR"}, {"lat": 35.3021443, "lon": -90.37483540000001, "name": "Crittenden , AR", "state_name": " AR"}, {"lat": 35.2998913, "lon": -90.8294002, "name": "Cross , AR", "state_name": " AR"}, {"lat": 34.53594030000001, "lon": -94.2190985, "name": "Dallas , AR", "state_name": " AR"}, {"lat": 35.7361886, "lon": -91.67986189999999, "name": "Desha , AR", "state_name": " AR"}, {"lat": 33.5156463, "lon": -91.7538817, "name": "Drew , AR", "state_name": " AR"}, {"lat": 35.1035858, "lon": -92.38136209999999, "name": "Faulkner , AR", "state_name": " AR"}, {"lat": 36.170346, "lon": -91.7759792, "name": "Franklin , AR", "state_name": " AR"}, {"lat": 33.6145649, "lon": -93.81351640000001, "name": "Fulton , AR", "state_name": " AR"}, {"lat": 33.3629029, "lon": -93.70990119999999, "name": "Garland , AR", "state_name": " AR"}, {"lat": 34.2628015, "lon": -92.4208713, "name": "Grant , AR", "state_name": " AR"}, {"lat": 36.1314931, "lon": -90.563609, "name": "Greene , AR", "state_name": " AR"}, {"lat": 33.6530112, "lon": -93.66232389999999, "name": "Hempstead , AR", "state_name": " AR"}, {"lat": 34.3393795, "lon": -92.97755579999999, "name": "Hot Spring , AR", "state_name": " AR"}, {"lat": 34.1318213, "lon": -94.028678, "name": "Howard , AR", "state_name": " AR"}, {"lat": 35.8174139, "lon": -91.5983959, "name": "Independence , AR", "state_name": " AR"}, {"lat": 36.1610924, "lon": -91.9099238, "name": "Izard , AR", "state_name": " AR"}, {"lat": 35.6479574, "lon": -91.13530200000001, "name": "Jackson , AR", "state_name": " AR"}, {"lat": 34.3806516, "lon": -92.1640352, "name": "Jefferson , AR", "state_name": " AR"}, {"lat": 36.1328564, "lon": -94.16548209999999, "name": "Johnson , AR", "state_name": " AR"}, {"lat": 33.2511695, "lon": -93.62178019999999, "name": "Lafayette , AR", "state_name": " AR"}, {"lat": 35.9969735, "lon": -91.13530200000001, "name": "Lawrence , AR", "state_name": " AR"}, {"lat": 28.2179994, "lon": 94.7277528, "name": "Lee , AR", "state_name": " AR"}, {"lat": 35.949526, "lon": -94.4235482, "name": "Lincoln , AR", "state_name": " AR"}, {"lat": 33.6808926, "lon": -94.19234000000002, "name": "Little River , AR", "state_name": " AR"}, {"lat": 36.2009127, "lon": -94.38743439999999, "name": "Logan , AR", "state_name": " AR"}, {"lat": 34.7839795, "lon": -91.8998611, "name": "Lonoke , AR", "state_name": " AR"}, {"lat": 35.0131472, "lon": -90.72260969999999, "name": "Madison , AR", "state_name": " AR"}, {"lat": 35.2145336, "lon": -90.1964835, "name": "Marion , AR", "state_name": " AR"}, {"lat": 33.3335556, "lon": -93.86553029999999, "name": "Miller , AR", "state_name": " AR"}, {"lat": 35.8279728, "lon": -90.0746767, "name": "Mississippi , AR", "state_name": " AR"}, {"lat": 34.7348191, "lon": -91.10456579999999, "name": "Monroe , AR", "state_name": " AR"}, {"lat": 34.5424074, "lon": -93.66232389999999, "name": "Montgomery , AR", "state_name": " AR"}, {"lat": 33.6621386, "lon": -93.33889169999999, "name": "Nevada , AR", "state_name": " AR"}, {"lat": 35.9603994, "lon": -93.17796589999999, "name": "Newton , AR", "state_name": " AR"}, {"lat": 33.5828512, "lon": -92.9375739, "name": "Ouachita , AR", "state_name": " AR"}, {"lat": 35.0475869, "lon": -92.7940557, "name": "Perry , AR", "state_name": " AR"}, {"lat": 34.4611206, "lon": -90.86751339999999, "name": "Phillips , AR", "state_name": " AR"}, {"lat": 34.1876975, "lon": -93.66232389999999, "name": "Pike , AR", "state_name": " AR"}, {"lat": 35.6078586, "lon": -90.6393702, "name": "Poinsett , AR", "state_name": " AR"}, {"lat": 34.5268097, "lon": -94.15137639999999, "name": "Polk , AR", "state_name": " AR"}, {"lat": 35.440627, "lon": -93.0175712, "name": "Pope , AR", "state_name": " AR"}, {"lat": 34.7636336, "lon": -91.5983959, "name": "Prairie , AR", "state_name": " AR"}, {"lat": 34.75386150000001, "lon": -92.2236667, "name": "Pulaski , AR", "state_name": " AR"}, {"lat": 36.3457918, "lon": -90.9820668, "name": "Randolph , AR", "state_name": " AR"}, {"lat": 36.4533933, "lon": -90.1453751, "name": "St. Francis , AR", "state_name": " AR"}, {"lat": 33.8734364, "lon": -92.2670918, "name": "Saline , AR", "state_name": " AR"}, {"lat": 34.6964808, "lon": -92.0962552, "name": "Scott , AR", "state_name": " AR"}, {"lat": 35.2468204, "lon": -91.73368459999999, "name": "Searcy , AR", "state_name": " AR"}, {"lat": 35.2260397, "lon": -94.315422, "name": "Sebastian , AR", "state_name": " AR"}, {"lat": 34.0346222, "lon": -94.27436279999999, "name": "Sevier , AR", "state_name": " AR"}, {"lat": 36.16759740000001, "lon": -91.44346900000001, "name": "Sharp , AR", "state_name": " AR"}, {"lat": 35.8075142, "lon": -92.2236667, "name": "Stone , AR", "state_name": " AR"}, {"lat": 33.1431092, "lon": -92.539603, "name": "Union , AR", "state_name": " AR"}, {"lat": 35.436756, "lon": -94.34826799999999, "name": "Van Buren , AR", "state_name": " AR"}, {"lat": 33.774005, "lon": -93.68267960000001, "name": "Washington , AR", "state_name": " AR"}, {"lat": 33.0140144, "lon": -91.9956868, "name": "White , AR", "state_name": " AR"}, {"lat": 35.1215846, "lon": -91.13530200000001, "name": "Woodruff , AR", "state_name": " AR"}, {"lat": 35.0810824, "lon": -93.33889169999999, "name": "Yell , AR", "state_name": " AR"}, {"lat": 37.7652065, "lon": -122.2416355, "name": "Alameda , CA", "state_name": " CA"}, {"lat": 32.8350521, "lon": -116.7664109, "name": "Alpine , CA", "state_name": " CA"}, {"lat": 38.3488921, "lon": -120.7740931, "name": "Amador , CA", "state_name": " CA"}, {"lat": 49.8730193, "lon": -112.7801858, "name": "Butte , CA", "state_name": " CA"}, {"lat": 38.1960477, "lon": -120.6805037, "name": "Calaveras , CA", "state_name": " CA"}, {"lat": 39.2143343, "lon": -122.0094175, "name": "Colusa , CA", "state_name": " CA"}, {"lat": 37.8534093, "lon": -121.9017954, "name": "Contra Costa , CA", "state_name": " CA"}, {"lat": 41.7076287, "lon": -123.9659708, "name": "Del Norte , CA", "state_name": " CA"}, {"lat": 38.74263759999999, "lon": -120.4357631, "name": "El Dorado , CA", "state_name": " CA"}, {"lat": 36.7468422, "lon": -119.7725868, "name": "Fresno , CA", "state_name": " CA"}, {"lat": 39.5218283, "lon": -122.0138651, "name": "Glenn , CA", "state_name": " CA"}, {"lat": 40.7450055, "lon": -123.8695086, "name": "Humboldt , CA", "state_name": " CA"}, {"lat": 32.8475528, "lon": -115.5694391, "name": "Imperial , CA", "state_name": " CA"}, {"lat": 36.3091865, "lon": -117.5495846, "name": "Inyo , CA", "state_name": " CA"}, {"lat": 35.4937274, "lon": -118.8596804, "name": "Kern , CA", "state_name": " CA"}, {"lat": 36.0988489, "lon": -119.8815203, "name": "Kings , CA", "state_name": " CA"}, {"lat": 39.08396440000001, "lon": -122.8084496, "name": "Lake , CA", "state_name": " CA"}, {"lat": 40.5394389, "lon": -120.7120023, "name": "Lassen , CA", "state_name": " CA"}, {"lat": 36.9613356, "lon": -120.0607176, "name": "Madera , CA", "state_name": " CA"}, {"lat": 38.083403, "lon": -122.7633036, "name": "Marin , CA", "state_name": " CA"}, {"lat": 37.4849377, "lon": -119.9662843, "name": "Mariposa , CA", "state_name": " CA"}, {"lat": 39.3076744, "lon": -123.7994591, "name": "Mendocino , CA", "state_name": " CA"}, {"lat": 37.3021632, "lon": -120.4829677, "name": "Merced , CA", "state_name": " CA"}, {"lat": 41.4565165, "lon": -120.629366, "name": "Modoc , CA", "state_name": " CA"}, {"lat": 44.0033629, "lon": -80.0534923, "name": "Mono , CA", "state_name": " CA"}, {"lat": 36.6002378, "lon": -121.8946761, "name": "Monterey , CA", "state_name": " CA"}, {"lat": 38.2975381, "lon": -122.286865, "name": "Napa , CA", "state_name": " CA"}, {"lat": 39.1346666, "lon": -121.1710389, "name": "Nevada , CA", "state_name": " CA"}, {"lat": 33.7877944, "lon": -117.8531119, "name": "Orange , CA", "state_name": " CA"}, {"lat": 39.0915751, "lon": -120.8039474, "name": "Placer , CA", "state_name": " CA"}, {"lat": 39.99268319999999, "lon": -120.8039474, "name": "Plumas , CA", "state_name": " CA"}, {"lat": 33.9533487, "lon": -117.3961564, "name": "Riverside , CA", "state_name": " CA"}, {"lat": 38.5815719, "lon": -121.4943996, "name": "Sacramento , CA", "state_name": " CA"}, {"lat": 36.5097219, "lon": -121.080833, "name": "San Benito , CA", "state_name": " CA"}, {"lat": 34.1083449, "lon": -117.2897652, "name": "San Bernardino , CA", "state_name": " CA"}, {"lat": 32.715738, "lon": -117.1610838, "name": "San Diego , CA", "state_name": " CA"}, {"lat": 37.7749295, "lon": -122.4194155, "name": "San Francisco /city, CA", "state_name": " CA"}, {"lat": 36.6066162, "lon": -120.1890447, "name": "San Joaquin , CA", "state_name": " CA"}, {"lat": 35.2827524, "lon": -120.6596156, "name": "San Luis Obispo , CA", "state_name": " CA"}, {"lat": 37.5629917, "lon": -122.3255254, "name": "San Mateo , CA", "state_name": " CA"}, {"lat": 34.4208305, "lon": -119.6981901, "name": "Santa Barbara , CA", "state_name": " CA"}, {"lat": 37.3541079, "lon": -121.9552356, "name": "Santa Clara , CA", "state_name": " CA"}, {"lat": 36.9741171, "lon": -122.0307963, "name": "Santa Cruz , CA", "state_name": " CA"}, {"lat": 40.598119, "lon": -122.4907566, "name": "Shasta , CA", "state_name": " CA"}, {"lat": 39.5532845, "lon": -120.2512728, "name": "Sierra , CA", "state_name": " CA"}, {"lat": 41.7743261, "lon": -122.5770126, "name": "Siskiyou , CA", "state_name": " CA"}, {"lat": 38.3104969, "lon": -121.9017954, "name": "Solano , CA", "state_name": " CA"}, {"lat": 38.291859, "lon": -122.4580356, "name": "Sonoma , CA", "state_name": " CA"}, {"lat": 37.5090711, "lon": -120.9876321, "name": "Stanislaus , CA", "state_name": " CA"}, {"lat": 39.1598915, "lon": -121.7527482, "name": "Sutter , CA", "state_name": " CA"}, {"lat": 40.0271015, "lon": -122.1233228, "name": "Tehama , CA", "state_name": " CA"}, {"lat": 40.6329485, "lon": -123.0622553, "name": "Trinity , CA", "state_name": " CA"}, {"lat": 36.2077288, "lon": -119.3473379, "name": "Tulare , CA", "state_name": " CA"}, {"lat": 37.9627027, "lon": -120.2412999, "name": "Tuolumne , CA", "state_name": " CA"}, {"lat": 34.274646, "lon": -119.2290316, "name": "Ventura , CA", "state_name": " CA"}, {"lat": 38.732968, "lon": -121.8072828, "name": "Yolo , CA", "state_name": " CA"}, {"lat": 39.2547027, "lon": -121.3998995, "name": "Yuba , CA", "state_name": " CA"}, {"lat": 39.8398269, "lon": -104.1930918, "name": "Adams , CO", "state_name": " CO"}, {"lat": 37.4694491, "lon": -105.8700214, "name": "Alamosa , CO", "state_name": " CO"}, {"lat": 38.85333809999999, "lon": -102.1762596, "name": "Arapahoe , CO", "state_name": " CO"}, {"lat": 37.1604318, "lon": -107.0067031, "name": "Archuleta , CO", "state_name": " CO"}, {"lat": 37.394731, "lon": -102.5298028, "name": "Baca , CO", "state_name": " CO"}, {"lat": 38.0036339, "lon": -103.0817903, "name": "Bent , CO", "state_name": " CO"}, {"lat": 40.0149856, "lon": -105.2705456, "name": "Boulder , CO", "state_name": " CO"}, {"lat": 39.9205411, "lon": -105.0866504, "name": "Broomfield /city, CO", "state_name": " CO"}, {"lat": 38.7536679, "lon": -106.2522143, "name": "Chaffee , CO", "state_name": " CO"}, {"lat": 38.8002562, "lon": -102.6216211, "name": "Cheyenne , CO", "state_name": " CO"}, {"lat": 39.6904464, "lon": -105.6412527, "name": "Clear Creek , CO", "state_name": " CO"}, {"lat": 37.0883453, "lon": -106.0197445, "name": "Conejos , CO", "state_name": " CO"}, {"lat": 37.2049596, "lon": -105.5005483, "name": "Costilla , CO", "state_name": " CO"}, {"lat": 38.1930606, "lon": -103.8560646, "name": "Crowley , CO", "state_name": " CO"}, {"lat": 38.0615578, "lon": -105.3131185, "name": "Custer , CO", "state_name": " CO"}, {"lat": 38.7422062, "lon": -108.0689582, "name": "Delta , CO", "state_name": " CO"}, {"lat": 39.7392358, "lon": -104.990251, "name": "Denver /city, CO", "state_name": " CO"}, {"lat": 37.4738818, "lon": -108.5045356, "name": "Dolores , CO", "state_name": " CO"}, {"lat": 39.2587106, "lon": -104.9388853, "name": "Douglas , CO", "state_name": " CO"}, {"lat": 39.6552634, "lon": -106.8286507, "name": "Eagle , CO", "state_name": " CO"}, {"lat": 39.2194678, "lon": -104.5371508, "name": "Elbert , CO", "state_name": " CO"}, {"lat": 38.9108325, "lon": -104.4723301, "name": "El Paso , CO", "state_name": " CO"}, {"lat": 38.5306514, "lon": -105.5005483, "name": "Fremont , CO", "state_name": " CO"}, {"lat": 39.6584775, "lon": -107.763621, "name": "Garfield , CO", "state_name": " CO"}, {"lat": 39.8770159, "lon": -105.4536718, "name": "Gilpin , CO", "state_name": " CO"}, {"lat": 40.0727382, "lon": -106.0640179, "name": "Grand , CO", "state_name": " CO"}, {"lat": 38.5458246, "lon": -106.9253207, "name": "Gunnison , CO", "state_name": " CO"}, {"lat": 37.9316309, "lon": -107.3848831, "name": "Hinsdale , CO", "state_name": " CO"}, {"lat": 37.6125984, "lon": -104.9388853, "name": "Huerfano , CO", "state_name": " CO"}, {"lat": 40.6819242, "lon": -106.2522143, "name": "Jackson , CO", "state_name": " CO"}, {"lat": 39.377255, "lon": -105.8005988, "name": "Jefferson , CO", "state_name": " CO"}, {"lat": 39.3472095, "lon": -104.4644112, "name": "Kiowa , CO", "state_name": " CO"}, {"lat": 38.7611129, "lon": -102.7893667, "name": "Kit Carson , CO", "state_name": " CO"}, {"lat": 39.1941167, "lon": -106.2992912, "name": "Lake , CO", "state_name": " CO"}, {"lat": 37.2125857, "lon": -107.763621, "name": "La Plata , CO", "state_name": " CO"}, {"lat": 40.6955572, "lon": -105.5943388, "name": "Larimer , CO", "state_name": " CO"}, {"lat": 38.0666735, "lon": -103.222708, "name": "Las Animas , CO", "state_name": " CO"}, {"lat": 39.0457549, "lon": -103.3587288, "name": "Lincoln , CO", "state_name": " CO"}, {"lat": 40.7056181, "lon": -102.989615, "name": "Logan , CO", "state_name": " CO"}, {"lat": 39.1662458, "lon": -108.1388881, "name": "Mesa , CO", "state_name": " CO"}, {"lat": 37.6583677, "lon": -107.0067031, "name": "Mineral , CO", "state_name": " CO"}, {"lat": 37.9988882, "lon": -105.9100156, "name": "Moffat , CO", "state_name": " CO"}, {"lat": 39.581098, "lon": -105.8672337, "name": "Montezuma , CO", "state_name": " CO"}, {"lat": 38.4783198, "lon": -107.8761738, "name": "Montrose , CO", "state_name": " CO"}, {"lat": 40.2989226, "lon": -103.7289167, "name": "Morgan , CO", "state_name": " CO"}, {"lat": 37.9397663, "lon": -103.6362715, "name": "Otero , CO", "state_name": " CO"}, {"lat": 38.0227716, "lon": -107.6714487, "name": "Ouray , CO", "state_name": " CO"}, {"lat": 39.0897928, "lon": -105.5943388, "name": "Park , CO", "state_name": " CO"}, {"lat": 40.53713339999999, "lon": -102.3463875, "name": "Phillips , CO", "state_name": " CO"}, {"lat": 38.6091612, "lon": -106.5166957, "name": "Pitkin , CO", "state_name": " CO"}, {"lat": 37.84337560000001, "lon": -102.2547919, "name": "Prowers , CO", "state_name": " CO"}, {"lat": 38.2544472, "lon": -104.6091409, "name": "Pueblo , CO", "state_name": " CO"}, {"lat": 39.9814297, "lon": -108.2377519, "name": "Rio Blanco , CO", "state_name": " CO"}, {"lat": 37.5749508, "lon": -106.4405872, "name": "Rio Grande , CO", "state_name": " CO"}, {"lat": 40.4771623, "lon": -107.1011931, "name": "Routt , CO", "state_name": " CO"}, {"lat": 38.0875, "lon": -106.1419671, "name": "Saguache , CO", "state_name": " CO"}, {"lat": 37.7573704, "lon": -107.71625, "name": "San Juan , CO", "state_name": " CO"}, {"lat": 0.34362, "lon": -76.9122, "name": "San Miguel , CO", "state_name": " CO"}, {"lat": 40.9363799, "lon": -102.5254664, "name": "Sedgwick , CO", "state_name": " CO"}, {"lat": 39.5911871, "lon": -106.0640179, "name": "Summit , CO", "state_name": " CO"}, {"lat": 38.86115789999999, "lon": -105.1726816, "name": "Teller , CO", "state_name": " CO"}, {"lat": 40.063745, "lon": -102.989615, "name": "Washington , CO", "state_name": " CO"}, {"lat": 40.3920718, "lon": -104.7158226, "name": "Weld , CO", "state_name": " CO"}, {"lat": 40.1222084, "lon": -102.7252096, "name": "Yuma , CO", "state_name": " CO"}, {"lat": 41.1408363, "lon": -73.2612615, "name": "Fairfield , CT", "state_name": " CT"}, {"lat": 41.76371109999999, "lon": -72.6850932, "name": "Hartford , CT", "state_name": " CT"}, {"lat": 41.7472642, "lon": -73.1887165, "name": "Litchfield , CT", "state_name": " CT"}, {"lat": 41.46985050000001, "lon": -72.4731529, "name": "Middlesex , CT", "state_name": " CT"}, {"lat": 41.308274, "lon": -72.9278835, "name": "New Haven , CT", "state_name": " CT"}, {"lat": 41.3556539, "lon": -72.0995209, "name": "New London , CT", "state_name": " CT"}, {"lat": 41.8714865, "lon": -72.3686931, "name": "Tolland , CT", "state_name": " CT"}, {"lat": 41.6998208, "lon": -72.1570219, "name": "Windham , CT", "state_name": " CT"}, {"lat": 39.1440612, "lon": -75.4344727, "name": "Kent , DE", "state_name": " DE"}, {"lat": 39.6620397, "lon": -75.5668166, "name": "New Castle , DE", "state_name": " DE"}, {"lat": 38.65308410000001, "lon": -75.4344727, "name": "Sussex , DE", "state_name": " DE"}, {"lat": 29.7938144, "lon": -82.49442260000001, "name": "Alachua , FL", "state_name": " FL"}, {"lat": 30.7971318, "lon": -86.681344, "name": "Baker , FL", "state_name": " FL"}, {"lat": 30.1805306, "lon": -85.684578, "name": "Bay , FL", "state_name": " FL"}, {"lat": 29.97238179999999, "lon": -82.1713632, "name": "Bradford , FL", "state_name": " FL"}, {"lat": 28.263933, "lon": -80.7214417, "name": "Brevard , FL", "state_name": " FL"}, {"lat": 26.190096, "lon": -80.365865, "name": "Broward , FL", "state_name": " FL"}, {"lat": 30.3475302, "lon": -85.1894045, "name": "Calhoun , FL", "state_name": " FL"}, {"lat": 26.8946009, "lon": -81.909826, "name": "Charlotte , FL", "state_name": " FL"}, {"lat": 28.8848842, "lon": -82.5185837, "name": "Citrus , FL", "state_name": " FL"}, {"lat": 29.9943564, "lon": -81.77870209999999, "name": "Clay , FL", "state_name": " FL"}, {"lat": 26.069985, "lon": -81.42789839999999, "name": "Collier , FL", "state_name": " FL"}, {"lat": 30.1812696, "lon": -82.605118, "name": "Columbia , FL", "state_name": " FL"}, {"lat": 27.2142078, "lon": -81.77870209999999, "name": "DeSoto , FL", "state_name": " FL"}, {"lat": 29.5207227, "lon": -83.1649001, "name": "Dixie , FL", "state_name": " FL"}, {"lat": 30.3500511, "lon": -81.6035062, "name": "Duval , FL", "state_name": " FL"}, {"lat": 30.6389408, "lon": -87.3413599, "name": "Escambia , FL", "state_name": " FL"}, {"lat": 29.4086072, "lon": -81.2518833, "name": "Flagler , FL", "state_name": " FL"}, {"lat": 29.7817695, "lon": -84.8567932, "name": "Franklin , FL", "state_name": " FL"}, {"lat": 30.5562947, "lon": -84.6479124, "name": "Gadsden , FL", "state_name": " FL"}, {"lat": 29.6871128, "lon": -82.82097399999999, "name": "Gilchrist , FL", "state_name": " FL"}, {"lat": 26.984415, "lon": -81.0754657, "name": "Glades , FL", "state_name": " FL"}, {"lat": 29.8001623, "lon": -85.35496499999999, "name": "Gulf , FL", "state_name": " FL"}, {"lat": 30.47559579999999, "lon": -82.95015579999999, "name": "Hamilton , FL", "state_name": " FL"}, {"lat": 27.4501733, "lon": -81.8224362, "name": "Hardee , FL", "state_name": " FL"}, {"lat": 26.6105319, "lon": -81.0754657, "name": "Hendry , FL", "state_name": " FL"}, {"lat": 28.8999815, "lon": -82.37454009999999, "name": "Hernando , FL", "state_name": " FL"}, {"lat": 27.3400286, "lon": -81.34002679999999, "name": "Highlands , FL", "state_name": " FL"}, {"lat": 27.9903597, "lon": -82.3017728, "name": "Hillsborough , FL", "state_name": " FL"}, {"lat": 30.8740806, "lon": -85.80766, "name": "Holmes , FL", "state_name": " FL"}, {"lat": 27.6947732, "lon": -80.54384499999999, "name": "Indian River , FL", "state_name": " FL"}, {"lat": 30.7150882, "lon": -85.1894045, "name": "Jackson , FL", "state_name": " FL"}, {"lat": 30.4311978, "lon": -83.8897057, "name": "Jefferson , FL", "state_name": " FL"}, {"lat": 30.0299573, "lon": -83.2077645, "name": "Lafayette , FL", "state_name": " FL"}, {"lat": 28.702847, "lon": -81.77870209999999, "name": "Lake , FL", "state_name": " FL"}, {"lat": 30.4196584, "lon": -83.30042159999999, "name": "Lee , FL", "state_name": " FL"}, {"lat": 30.4906177, "lon": -84.1857115, "name": "Leon , FL", "state_name": " FL"}, {"lat": 29.3178545, "lon": -82.82097399999999, "name": "Levy , FL", "state_name": " FL"}, {"lat": 30.1507777, "lon": -84.8567932, "name": "Liberty , FL", "state_name": " FL"}, {"lat": 30.4693772, "lon": -83.41292539999999, "name": "Madison , FL", "state_name": " FL"}, {"lat": 27.4799195, "lon": -82.34518899999999, "name": "Manatee , FL", "state_name": " FL"}, {"lat": 29.2787765, "lon": -82.12783999999999, "name": "Marion , FL", "state_name": " FL"}, {"lat": 29.29361, "lon": -82.19055999999999, "name": "Martin , FL", "state_name": " FL"}, {"lat": 24.5557001, "lon": -81.78259849999999, "name": "Monroe , FL", "state_name": " FL"}, {"lat": 30.5927334, "lon": -81.8224362, "name": "Nassau , FL", "state_name": " FL"}, {"lat": 30.57734009999999, "lon": -86.6611083, "name": "Okaloosa , FL", "state_name": " FL"}, {"lat": 27.2439349, "lon": -80.82978279999999, "name": "Okeechobee , FL", "state_name": " FL"}, {"lat": 28.4844995, "lon": -81.2518833, "name": "Orange , FL", "state_name": " FL"}, {"lat": 28.1019838, "lon": -81.0754657, "name": "Osceola , FL", "state_name": " FL"}, {"lat": 26.7056206, "lon": -80.0364297, "name": "Palm Beach , FL", "state_name": " FL"}, {"lat": 28.3232418, "lon": -82.4319405, "name": "Pasco , FL", "state_name": " FL"}, {"lat": 27.876394, "lon": -82.7778579, "name": "Pinellas , FL", "state_name": " FL"}, {"lat": 27.8617347, "lon": -81.6911559, "name": "Polk , FL", "state_name": " FL"}, {"lat": 29.6265157, "lon": -81.77870209999999, "name": "Putnam , FL", "state_name": " FL"}, {"lat": 30.0820501, "lon": -81.5470587, "name": "St. Johns , FL", "state_name": " FL"}, {"lat": 27.499208, "lon": -80.34219840000002, "name": "St. Lucie , FL", "state_name": " FL"}, {"lat": 30.7689907, "lon": -86.9824288, "name": "Santa Rosa , FL", "state_name": " FL"}, {"lat": 27.3364347, "lon": -82.53065269999999, "name": "Sarasota , FL", "state_name": " FL"}, {"lat": 27.8397466, "lon": -82.79121339999999, "name": "Seminole , FL", "state_name": " FL"}, {"lat": 28.6747526, "lon": -82.08429009999999, "name": "Sumter , FL", "state_name": " FL"}, {"lat": 29.2952809, "lon": -83.1618586, "name": "Suwannee , FL", "state_name": " FL"}, {"lat": 30.0993767, "lon": -83.67739279999999, "name": "Taylor , FL", "state_name": " FL"}, {"lat": 30.0745112, "lon": -82.34518899999999, "name": "Union , FL", "state_name": " FL"}, {"lat": 29.0279842, "lon": -81.0754657, "name": "Volusia , FL", "state_name": " FL"}, {"lat": 30.1301689, "lon": -84.3542049, "name": "Wakulla , FL", "state_name": " FL"}, {"lat": 30.56401989999999, "lon": -86.17517590000001, "name": "Walton , FL", "state_name": " FL"}, {"lat": 30.548737, "lon": -85.684578, "name": "Washington , FL", "state_name": " FL"}, {"lat": 33.54609000000001, "lon": -82.3163154, "name": "Appling , GA", "state_name": " GA"}, {"lat": 31.2232805, "lon": -81.8526121, "name": "Atkinson , GA", "state_name": " GA"}, {"lat": 31.5412085, "lon": -82.4319405, "name": "Bacon , GA", "state_name": " GA"}, {"lat": 31.2816037, "lon": -84.4802606, "name": "Baker , GA", "state_name": " GA"}, {"lat": 34.4917665, "lon": -83.5373946, "name": "Baldwin , GA", "state_name": " GA"}, {"lat": 34.378542, "lon": -83.46435509999999, "name": "Banks , GA", "state_name": " GA"}, {"lat": 34.0142667, "lon": -83.6986568, "name": "Barrow , GA", "state_name": " GA"}, {"lat": 32.8787666, "lon": -82.4737399, "name": "Bartow , GA", "state_name": " GA"}, {"lat": 31.7664035, "lon": -83.2077645, "name": "Ben Hill , GA", "state_name": " GA"}, {"lat": 31.3118535, "lon": -83.2077645, "name": "Berrien , GA", "state_name": " GA"}, {"lat": 32.7865735, "lon": -83.7199136, "name": "Bibb , GA", "state_name": " GA"}, {"lat": 32.4087854, "lon": -83.3789389, "name": "Bleckley , GA", "state_name": " GA"}, {"lat": 31.1510963, "lon": -81.9971108, "name": "Brantley , GA", "state_name": " GA"}, {"lat": 33.2909517, "lon": -84.45936999999999, "name": "Brooks , GA", "state_name": " GA"}, {"lat": 32.0236584, "lon": -81.47183869999999, "name": "Bryan , GA", "state_name": " GA"}, {"lat": 32.3595678, "lon": -81.77870209999999, "name": "Bulloch , GA", "state_name": " GA"}, {"lat": 33.088805, "lon": -81.9534815, "name": "Burke , GA", "state_name": " GA"}, {"lat": 32.7259967, "lon": -82.02622699999999, "name": "Butts , GA", "state_name": " GA"}, {"lat": 34.502587, "lon": -84.9510542, "name": "Calhoun , GA", "state_name": " GA"}, {"lat": 30.898276, "lon": -81.6035062, "name": "Camden , GA", "state_name": " GA"}, {"lat": 32.4241804, "lon": -82.08429009999999, "name": "Candler , GA", "state_name": " GA"}, {"lat": 33.5642239, "lon": -85.0649071, "name": "Carroll , GA", "state_name": " GA"}, {"lat": 34.8981727, "lon": -85.14793639999999, "name": "Catoosa , GA", "state_name": " GA"}, {"lat": 30.7917361, "lon": -82.08429009999999, "name": "Charlton , GA", "state_name": " GA"}, {"lat": 31.9994194, "lon": -81.1196075, "name": "Chatham , GA", "state_name": " GA"}, {"lat": 33.5479728, "lon": -84.76306819999999, "name": "Chattahoochee , GA", "state_name": " GA"}, {"lat": 34.4632661, "lon": -85.31362179999999, "name": "Chattooga , GA", "state_name": " GA"}, {"lat": 34.2514526, "lon": -84.4802606, "name": "Cherokee , GA", "state_name": " GA"}, {"lat": 33.9519347, "lon": -83.357567, "name": "Clarke , GA", "state_name": " GA"}, {"lat": 31.6447931, "lon": -85.0025539, "name": "Clay , GA", "state_name": " GA"}, {"lat": 34.8781479, "lon": -83.4009933, "name": "Clayton , GA", "state_name": " GA"}, {"lat": 30.9716985, "lon": -82.82097399999999, "name": "Clinch , GA", "state_name": " GA"}, {"lat": 31.9590772, "lon": -83.9884612, "name": "Cobb , GA", "state_name": " GA"}, {"lat": 31.5182285, "lon": -82.82097399999999, "name": "Coffee , GA", "state_name": " GA"}, {"lat": 31.17129349999999, "lon": -84.7332527, "name": "Colquitt , GA", "state_name": " GA"}, {"lat": 33.5098514, "lon": -82.25832969999999, "name": "Columbia , GA", "state_name": " GA"}, {"lat": 31.1428037, "lon": -83.46435509999999, "name": "Cook , GA", "state_name": " GA"}, {"lat": 33.3716708, "lon": -84.7315563, "name": "Coweta , GA", "state_name": " GA"}, {"lat": 33.8828954, "lon": -83.154596, "name": "Crawford , GA", "state_name": " GA"}, {"lat": 31.8875724, "lon": -83.804868, "name": "Crisp , GA", "state_name": " GA"}, {"lat": 34.9109017, "lon": -85.47880649999999, "name": "Dade , GA", "state_name": " GA"}, {"lat": 31.7735001, "lon": -84.4465826, "name": "Dawson , GA", "state_name": " GA"}, {"lat": 33.7748275, "lon": -84.2963123, "name": "Decatur , GA", "state_name": " GA"}, {"lat": 33.7956441, "lon": -84.2278796, "name": "DeKalb , GA", "state_name": " GA"}, {"lat": 32.1287268, "lon": -83.2077645, "name": "Dodge , GA", "state_name": " GA"}, {"lat": 32.1593447, "lon": -83.804868, "name": "Dooly , GA", "state_name": " GA"}, {"lat": 31.5439375, "lon": -84.2278796, "name": "Dougherty , GA", "state_name": " GA"}, {"lat": 31.5088073, "lon": -82.8498654, "name": "Douglas , GA", "state_name": " GA"}, {"lat": 31.3901106, "lon": -84.8984775, "name": "Early , GA", "state_name": " GA"}, {"lat": 30.7503289, "lon": -82.95015579999999, "name": "Echols , GA", "state_name": " GA"}, {"lat": 32.378148, "lon": -81.38393260000001, "name": "Effingham , GA", "state_name": " GA"}, {"lat": 34.0795372, "lon": -82.8640623, "name": "Elbert , GA", "state_name": " GA"}, {"lat": 32.5726629, "lon": -82.3017728, "name": "Emanuel , GA", "state_name": " GA"}, {"lat": 33.5337464, "lon": -82.1306747, "name": "Evans , GA", "state_name": " GA"}, {"lat": 34.8580405, "lon": -84.2278796, "name": "Fannin , GA", "state_name": " GA"}, {"lat": 33.4502206, "lon": -84.4802606, "name": "Fayette , GA", "state_name": " GA"}, {"lat": 34.2828967, "lon": -85.2308414, "name": "Floyd , GA", "state_name": " GA"}, {"lat": 33.0342974, "lon": -83.938242, "name": "Forsyth , GA", "state_name": " GA"}, {"lat": 33.2776182, "lon": -85.0979973, "name": "Franklin , GA", "state_name": " GA"}, {"lat": 33.8033965, "lon": -84.3962535, "name": "Fulton , GA", "state_name": " GA"}, {"lat": 34.6935359, "lon": -84.4802606, "name": "Gilmer , GA", "state_name": " GA"}, {"lat": 33.2422994, "lon": -82.6267345, "name": "Glascock , GA", "state_name": " GA"}, {"lat": 31.2624169, "lon": -81.6035062, "name": "Glynn , GA", "state_name": " GA"}, {"lat": 32.8820866, "lon": -83.3323848, "name": "Gordon , GA", "state_name": " GA"}, {"lat": 30.9050079, "lon": -84.2278796, "name": "Grady , GA", "state_name": " GA"}, {"lat": 33.5186591, "lon": -83.1649001, "name": "Greene , GA", "state_name": " GA"}, {"lat": 33.9190653, "lon": -84.01674229999999, "name": "Gwinnett , GA", "state_name": " GA"}, {"lat": 34.6478893, "lon": -83.54965659999999, "name": "Habersham , GA", "state_name": " GA"}, {"lat": 34.30778, "lon": -83.804868, "name": "Hall , GA", "state_name": " GA"}, {"lat": 33.2882621, "lon": -83.03613759999999, "name": "Hancock , GA", "state_name": " GA"}, {"lat": 33.2265099, "lon": -84.5713164, "name": "Haralson , GA", "state_name": " GA"}, {"lat": 32.7032697, "lon": -84.8567932, "name": "Harris , GA", "state_name": " GA"}, {"lat": 34.3500039, "lon": -82.95015579999999, "name": "Hart , GA", "state_name": " GA"}, {"lat": 33.2990406, "lon": -85.14793639999999, "name": "Heard , GA", "state_name": " GA"}, {"lat": 33.4347963, "lon": -84.14351359999999, "name": "Henry , GA", "state_name": " GA"}, {"lat": 32.4219655, "lon": -83.63484299999999, "name": "Houston , GA", "state_name": " GA"}, {"lat": 31.5893221, "lon": -83.2934086, "name": "Irwin , GA", "state_name": " GA"}, {"lat": 33.2945651, "lon": -83.96602089999999, "name": "Jackson , GA", "state_name": " GA"}, {"lat": 34.4695524, "lon": -84.4289888, "name": "Jasper , GA", "state_name": " GA"}, {"lat": 31.8234851, "lon": -82.605118, "name": "Jeff Davis , GA", "state_name": " GA"}, {"lat": 34.1170537, "lon": -83.5723876, "name": "Jefferson , GA", "state_name": " GA"}, {"lat": 32.7781246, "lon": -81.9971108, "name": "Jenkins , GA", "state_name": " GA"}, {"lat": 32.7308194, "lon": -82.6915429, "name": "Johnson , GA", "state_name": " GA"}, {"lat": 31.6338288, "lon": -81.4801073, "name": "Jones , GA", "state_name": " GA"}, {"lat": 33.0765883, "lon": -84.14351359999999, "name": "Lamar , GA", "state_name": " GA"}, {"lat": 32.1299246, "lon": -81.5367784, "name": "Lanier , GA", "state_name": " GA"}, {"lat": 32.433014, "lon": -82.99316069999999, "name": "Laurens , GA", "state_name": " GA"}, {"lat": 31.8128435, "lon": -84.14351359999999, "name": "Lee , GA", "state_name": " GA"}, {"lat": 31.842969, "lon": -81.47183869999999, "name": "Liberty , GA", "state_name": " GA"}, {"lat": 33.7875101, "lon": -82.4319405, "name": "Lincoln , GA", "state_name": " GA"}, {"lat": 31.7755541, "lon": -81.8224362, "name": "Long , GA", "state_name": " GA"}, {"lat": 30.8600022, "lon": -83.2934086, "name": "Lowndes , GA", "state_name": " GA"}, {"lat": 32.0509895, "lon": -84.7990901, "name": "Lumpkin , GA", "state_name": " GA"}, {"lat": 33.5258626, "lon": -82.5185837, "name": "McDuffie , GA", "state_name": " GA"}, {"lat": 31.4748147, "lon": -81.38393260000001, "name": "McIntosh , GA", "state_name": " GA"}, {"lat": 32.8406946, "lon": -83.6324022, "name": "Macon , GA", "state_name": " GA"}, {"lat": 33.5956813, "lon": -83.467944, "name": "Madison , GA", "state_name": " GA"}, {"lat": 32.328102, "lon": -84.5222189, "name": "Marion , GA", "state_name": " GA"}, {"lat": 33.155, "lon": -83.31917, "name": "Meriwether , GA", "state_name": " GA"}, {"lat": 31.2008218, "lon": -84.7315563, "name": "Miller , GA", "state_name": " GA"}, {"lat": 33.2198688, "lon": -82.7031896, "name": "Mitchell , GA", "state_name": " GA"}, {"lat": 33.7948364, "lon": -83.713229, "name": "Monroe , GA", "state_name": " GA"}, {"lat": 31.9404913, "lon": -81.1220539, "name": "Montgomery , GA", "state_name": " GA"}, {"lat": 31.5376731, "lon": -84.5993601, "name": "Morgan , GA", "state_name": " GA"}, {"lat": 34.7928029, "lon": -84.7315563, "name": "Murray , GA", "state_name": " GA"}, {"lat": 32.4794133, "lon": -84.8984775, "name": "Muscogee , GA", "state_name": " GA"}, {"lat": 31.3129575, "lon": -84.3357424, "name": "Newton , GA", "state_name": " GA"}, {"lat": 32.8554338, "lon": -82.949866, "name": "Oconee , GA", "state_name": " GA"}, {"lat": 32.293769, "lon": -84.0610191, "name": "Oglethorpe , GA", "state_name": " GA"}, {"lat": 33.9142037, "lon": -84.8984775, "name": "Paulding , GA", "state_name": " GA"}, {"lat": 32.5892926, "lon": -83.8260884, "name": "Peach , GA", "state_name": " GA"}, {"lat": 34.4497166, "lon": -84.4592701, "name": "Pickens , GA", "state_name": " GA"}, {"lat": 31.343806, "lon": -82.1713632, "name": "Pierce , GA", "state_name": " GA"}, {"lat": 33.0881873, "lon": -84.3962535, "name": "Pike , GA", "state_name": " GA"}, {"lat": 34.0132398, "lon": -85.14793639999999, "name": "Polk , GA", "state_name": " GA"}, {"lat": 32.3901752, "lon": -81.9567837, "name": "Pulaski , GA", "state_name": " GA"}, {"lat": 33.3069978, "lon": -83.3789389, "name": "Putnam , GA", "state_name": " GA"}, {"lat": 30.7849191, "lon": -83.5598811, "name": "Quitman , GA", "state_name": " GA"}, {"lat": 34.9027286, "lon": -83.3789389, "name": "Rabun , GA", "state_name": " GA"}, {"lat": 31.7913398, "lon": -84.68974949999999, "name": "Randolph , GA", "state_name": " GA"}, {"lat": 33.3205339, "lon": -82.08429009999999, "name": "Richmond , GA", "state_name": " GA"}, {"lat": 33.6752492, "lon": -84.0378894, "name": "Rockdale , GA", "state_name": " GA"}, {"lat": 32.2736136, "lon": -84.3121264, "name": "Schley , GA", "state_name": " GA"}, {"lat": 31.48632539999999, "lon": -82.0170596, "name": "Screven , GA", "state_name": " GA"}, {"lat": 30.9331429, "lon": -84.8984775, "name": "Seminole , GA", "state_name": " GA"}, {"lat": 33.2636732, "lon": -84.3121264, "name": "Spalding , GA", "state_name": " GA"}, {"lat": 33.794843, "lon": -83.1615422, "name": "Stephens , GA", "state_name": " GA"}, {"lat": 32.1141344, "lon": -84.8150781, "name": "Stewart , GA", "state_name": " GA"}, {"lat": 31.9981596, "lon": -84.2278796, "name": "Sumter , GA", "state_name": " GA"}, {"lat": 32.6891322, "lon": -84.5222189, "name": "Talbot , GA", "state_name": " GA"}, {"lat": 33.56978780000001, "lon": -82.8855961, "name": "Taliaferro , GA", "state_name": " GA"}, {"lat": 32.0634576, "lon": -82.08429009999999, "name": "Tattnall , GA", "state_name": " GA"}, {"lat": 32.5407455, "lon": -84.2278796, "name": "Taylor , GA", "state_name": " GA"}, {"lat": 31.8907647, "lon": -82.99316069999999, "name": "Telfair , GA", "state_name": " GA"}, {"lat": 31.6179579, "lon": -83.7451725, "name": "Terrell , GA", "state_name": " GA"}, {"lat": 30.8417409, "lon": -83.8473015, "name": "Thomas , GA", "state_name": " GA"}, {"lat": 31.4205597, "lon": -83.54965659999999, "name": "Tift , GA", "state_name": " GA"}, {"lat": 32.0795072, "lon": -82.34518899999999, "name": "Toombs , GA", "state_name": " GA"}, {"lat": 34.9208214, "lon": -83.7199136, "name": "Towns , GA", "state_name": " GA"}, {"lat": 32.3870233, "lon": -82.5834947, "name": "Treutlen , GA", "state_name": " GA"}, {"lat": 33.0698575, "lon": -85.02334599999999, "name": "Troup , GA", "state_name": " GA"}, {"lat": 31.6976531, "lon": -83.63484299999999, "name": "Turner , GA", "state_name": " GA"}, {"lat": 32.68356, "lon": -83.46435509999999, "name": "Twiggs , GA", "state_name": " GA"}, {"lat": 34.8457601, "lon": -83.9744262, "name": "Union , GA", "state_name": " GA"}, {"lat": 32.9047684, "lon": -84.3121264, "name": "Upson , GA", "state_name": " GA"}, {"lat": 34.6858231, "lon": -85.35496499999999, "name": "Walker , GA", "state_name": " GA"}, {"lat": 33.7708613, "lon": -83.7199136, "name": "Walton , GA", "state_name": " GA"}, {"lat": 31.134411, "lon": -82.4752757, "name": "Ware , GA", "state_name": " GA"}, {"lat": 33.4470392, "lon": -82.6915429, "name": "Warren , GA", "state_name": " GA"}, {"lat": 33.7367948, "lon": -82.7393089, "name": "Washington , GA", "state_name": " GA"}, {"lat": 31.5092107, "lon": -81.909826, "name": "Wayne , GA", "state_name": " GA"}, {"lat": 32.0129889, "lon": -84.56414699999999, "name": "Webster , GA", "state_name": " GA"}, {"lat": 32.0999794, "lon": -82.6915429, "name": "Wheeler , GA", "state_name": " GA"}, {"lat": 34.2828722, "lon": -84.7452138, "name": "White , GA", "state_name": " GA"}, {"lat": 33.0770682, "lon": -84.9479916, "name": "Whitfield , GA", "state_name": " GA"}, {"lat": 31.9611759, "lon": -83.46435509999999, "name": "Wilcox , GA", "state_name": " GA"}, {"lat": 33.808264, "lon": -82.7778579, "name": "Wilkes , GA", "state_name": " GA"}, {"lat": 32.8024682, "lon": -83.1649001, "name": "Wilkinson , GA", "state_name": " GA"}, {"lat": 31.750735, "lon": -83.6757245, "name": "Worth , GA", "state_name": " GA"}, {"lat": 19.5429151, "lon": -155.6658568, "name": "Hawaii , HI", "state_name": " HI"}, {"lat": 21.3069444, "lon": -157.8583333, "name": "Honolulu /city, HI", "state_name": " HI"}, {"lat": 21.9661076, "lon": -159.5737912, "name": "Kauai , HI", "state_name": " HI"}, {"lat": 20.7983626, "lon": -156.3319253, "name": "Maui , HI", "state_name": " HI"}, {"lat": 43.478767, "lon": -116.2420304, "name": "Ada , ID", "state_name": " ID"}, {"lat": 44.9882561, "lon": -116.4916091, "name": "Adams , ID", "state_name": " ID"}, {"lat": 42.8613016, "lon": -112.7227673, "name": "Bannock , ID", "state_name": " ID"}, {"lat": 42.0299239, "lon": -111.3321974, "name": "Bear Lake , ID", "state_name": " ID"}, {"lat": 47.22768070000001, "lon": -116.7843354, "name": "Benewah , ID", "state_name": " ID"}, {"lat": 43.2112303, "lon": -112.3624146, "name": "Bingham , ID", "state_name": " ID"}, {"lat": 43.3424024, "lon": -114.5956101, "name": "Blaine , ID", "state_name": " ID"}, {"lat": 43.6187102, "lon": -116.2146068, "name": "Boise , ID", "state_name": " ID"}, {"lat": 48.2751783, "lon": -116.5931483, "name": "Bonner , ID", "state_name": " ID"}, {"lat": 43.4508683, "lon": -111.5455289, "name": "Bonneville , ID", "state_name": " ID"}, {"lat": 48.7987617, "lon": -116.5627065, "name": "Boundary , ID", "state_name": " ID"}, {"lat": 43.6448198, "lon": -113.1841378, "name": "Butte , ID", "state_name": " ID"}, {"lat": 44.00740829999999, "lon": -112.2210921, "name": "Camas , ID", "state_name": " ID"}, {"lat": 47.5751928, "lon": -116.4126738, "name": "Canyon , ID", "state_name": " ID"}, {"lat": 42.75386839999999, "lon": -111.6660725, "name": "Caribou , ID", "state_name": " ID"}, {"lat": 42.358036, "lon": -113.5728501, "name": "Cassia , ID", "state_name": " ID"}, {"lat": 44.1975553, "lon": -112.3755496, "name": "Clark , ID", "state_name": " ID"}, {"lat": 46.0223931, "lon": -115.8909742, "name": "Clearwater , ID", "state_name": " ID"}, {"lat": 44.3874133, "lon": -114.6959118, "name": "Custer , ID", "state_name": " ID"}, {"lat": 43.1154284, "lon": -115.5264458, "name": "Elmore , ID", "state_name": " ID"}, {"lat": 42.0135375, "lon": -111.8071694, "name": "Franklin , ID", "state_name": " ID"}, {"lat": 44.2242743, "lon": -111.4790031, "name": "Fremont , ID", "state_name": " ID"}, {"lat": 47.5082627, "lon": -115.8679385, "name": "Gem , ID", "state_name": " ID"}, {"lat": 42.9387917, "lon": -114.7131081, "name": "Gooding , ID", "state_name": " ID"}, {"lat": 45.9019541, "lon": -115.7237432, "name": "Idaho , ID", "state_name": " ID"}, {"lat": 43.7640903, "lon": -112.2493671, "name": "Jefferson , ID", "state_name": " ID"}, {"lat": 42.7240732, "lon": -114.5186534, "name": "Jerome , ID", "state_name": " ID"}, {"lat": 48.3102037, "lon": -116.5135257, "name": "Kootenai , ID", "state_name": " ID"}, {"lat": 46.7360364, "lon": -116.6764195, "name": "Latah , ID", "state_name": " ID"}, {"lat": 44.8515919, "lon": -113.6197746, "name": "Lemhi , ID", "state_name": " ID"}, {"lat": 46.2664791, "lon": -116.4054092, "name": "Lewis , ID", "state_name": " ID"}, {"lat": 43.5129694, "lon": -111.9644136, "name": "Lincoln , ID", "state_name": " ID"}, {"lat": 43.7508332, "lon": -111.5583742, "name": "Madison , ID", "state_name": " ID"}, {"lat": 42.7537967, "lon": -113.4902829, "name": "Minidoka , ID", "state_name": " ID"}, {"lat": 46.2348914, "lon": -116.2406974, "name": "Nez Perce , ID", "state_name": " ID"}, {"lat": 42.2059769, "lon": -112.5245093, "name": "Oneida , ID", "state_name": " ID"}, {"lat": 43.4182229, "lon": -116.2006673, "name": "Owyhee , ID", "state_name": " ID"}, {"lat": 44.0782195, "lon": -116.9337711, "name": "Payette , ID", "state_name": " ID"}, {"lat": 42.7528492, "lon": -112.7684521, "name": "Power , ID", "state_name": " ID"}, {"lat": 42.9360165, "lon": -114.4058752, "name": "Shoshone , ID", "state_name": " ID"}, {"lat": 43.886579, "lon": -111.6777396, "name": "Teton , ID", "state_name": " ID"}, {"lat": 42.5629668, "lon": -114.4608711, "name": "Twin Falls , ID", "state_name": " ID"}, {"lat": 44.9204669, "lon": -115.7926381, "name": "Valley , ID", "state_name": " ID"}, {"lat": 44.3658715, "lon": -116.7548607, "name": "Washington , ID", "state_name": " ID"}, {"lat": 39.8653244, "lon": -91.1981974, "name": "Adams , IL", "state_name": " IL"}, {"lat": 39.7242387, "lon": -90.0390073, "name": "Alexander , IL", "state_name": " IL"}, {"lat": 38.902985, "lon": -89.4742177, "name": "Bond , IL", "state_name": " IL"}, {"lat": 42.34849759999999, "lon": -88.8263006, "name": "Boone , IL", "state_name": " IL"}, {"lat": 39.9379573, "lon": -90.7152749, "name": "Brown , IL", "state_name": " IL"}, {"lat": 41.2891317, "lon": -89.3669118, "name": "Bureau , IL", "state_name": " IL"}, {"lat": 38.65032619999999, "lon": -88.04364729999999, "name": "Calhoun , IL", "state_name": " IL"}, {"lat": 42.0385843, "lon": -89.9626799, "name": "Carroll , IL", "state_name": " IL"}, {"lat": 39.9398601, "lon": -90.26200419999999, "name": "Cass , IL", "state_name": " IL"}, {"lat": 40.1164204, "lon": -88.2433829, "name": "Champaign , IL", "state_name": " IL"}, {"lat": 39.5672183, "lon": -89.3226954, "name": "Christian , IL", "state_name": " IL"}, {"lat": 39.3824189, "lon": -87.77633329999999, "name": "Clark , IL", "state_name": " IL"}, {"lat": 38.7279431, "lon": -88.55653099999999, "name": "Clay , IL", "state_name": " IL"}, {"lat": 40.1536479, "lon": -88.9645253, "name": "Clinton , IL", "state_name": " IL"}, {"lat": 39.520142, "lon": -88.470497, "name": "Coles , IL", "state_name": " IL"}, {"lat": 41.7376587, "lon": -87.697554, "name": "Cook , IL", "state_name": " IL"}, {"lat": 39.0499568, "lon": -87.77633329999999, "name": "Crawford , IL", "state_name": " IL"}, {"lat": 39.2653533, "lon": -88.2071598, "name": "Cumberland , IL", "state_name": " IL"}, {"lat": 41.9294736, "lon": -88.75036469999999, "name": "DeKalb , IL", "state_name": " IL"}, {"lat": 40.1811468, "lon": -88.7861844, "name": "De Witt , IL", "state_name": " IL"}, {"lat": 40.785049, "lon": -90.081779, "name": "Douglas , IL", "state_name": " IL"}, {"lat": 41.8243831, "lon": -88.0900762, "name": "DuPage , IL", "state_name": " IL"}, {"lat": 39.7555908, "lon": -87.7011361, "name": "Edgar , IL", "state_name": " IL"}, {"lat": 40.7455683, "lon": -89.7489531, "name": "Edwards , IL", "state_name": " IL"}, {"lat": 39.1200418, "lon": -88.5433829, "name": "Effingham , IL", "state_name": " IL"}, {"lat": 39.3200466, "lon": -90.15372289999999, "name": "Fayette , IL", "state_name": " IL"}, {"lat": 40.4988592, "lon": -88.2071598, "name": "Ford , IL", "state_name": " IL"}, {"lat": 39.6203259, "lon": -90.04400009999999, "name": "Franklin , IL", "state_name": " IL"}, {"lat": 41.8672508, "lon": -90.1595705, "name": "Fulton , IL", "state_name": " IL"}, {"lat": 37.7107751, "lon": -88.24611829999999, "name": "Gallatin , IL", "state_name": " IL"}, {"lat": 39.4029862, "lon": -90.37483540000001, "name": "Greene , IL", "state_name": " IL"}, {"lat": 41.3500531, "lon": -88.4016041, "name": "Grundy , IL", "state_name": " IL"}, {"lat": 40.3964333, "lon": -91.3390389, "name": "Hamilton , IL", "state_name": " IL"}, {"lat": 40.38493649999999, "lon": -91.13530200000001, "name": "Hancock , IL", "state_name": " IL"}, {"lat": 39.1567149, "lon": -90.6178994, "name": "Hardin , IL", "state_name": " IL"}, {"lat": 41.0250376, "lon": -90.356239, "name": "Henderson , IL", "state_name": " IL"}, {"lat": 41.1114249, "lon": -89.35647759999999, "name": "Henry , IL", "state_name": " IL"}, {"lat": 40.8275356, "lon": -87.5819743, "name": "Iroquois , IL", "state_name": " IL"}, {"lat": 37.7218304, "lon": -89.3226954, "name": "Jackson , IL", "state_name": " IL"}, {"lat": 39.0554965, "lon": -88.0900762, "name": "Jasper , IL", "state_name": " IL"}, {"lat": 38.2267348, "lon": -88.86469799999999, "name": "Jefferson , IL", "state_name": " IL"}, {"lat": 39.0704754, "lon": -90.37483540000001, "name": "Jersey , IL", "state_name": " IL"}, {"lat": 42.3148804, "lon": -90.2244662, "name": "Jo Daviess , IL", "state_name": " IL"}, {"lat": 37.42037639999999, "lon": -88.90306, "name": "Johnson , IL", "state_name": " IL"}, {"lat": 39.190047, "lon": -90.35372699999999, "name": "Kane , IL", "state_name": " IL"}, {"lat": 41.1200325, "lon": -87.8611531, "name": "Kankakee , IL", "state_name": " IL"}, {"lat": 41.5507043, "lon": -88.4403883, "name": "Kendall , IL", "state_name": " IL"}, {"lat": 40.9342048, "lon": -90.2548467, "name": "Knox , IL", "state_name": " IL"}, {"lat": 42.3689363, "lon": -87.8271534, "name": "Lake , IL", "state_name": " IL"}, {"lat": 41.3621503, "lon": -89.0418249, "name": "LaSalle , IL", "state_name": " IL"}, {"lat": 42.441111, "lon": -88.641111, "name": "Lawrence , IL", "state_name": " IL"}, {"lat": 41.7950293, "lon": -88.9414786, "name": "Lee , IL", "state_name": " IL"}, {"lat": 38.9675463, "lon": -89.76398270000001, "name": "Livingston , IL", "state_name": " IL"}, {"lat": 37.9594572, "lon": -88.83350279999999, "name": "Logan , IL", "state_name": " IL"}, {"lat": 40.3885122, "lon": -90.6773046, "name": "McDonough , IL", "state_name": " IL"}, {"lat": 42.333355, "lon": -88.2667534, "name": "McHenry , IL", "state_name": " IL"}, {"lat": 40.3144833, "lon": -89.16980900000001, "name": "McLean , IL", "state_name": " IL"}, {"lat": 39.7128155, "lon": -88.9970218, "name": "Macon , IL", "state_name": " IL"}, {"lat": 39.2375268, "lon": -89.9253233, "name": "Macoupin , IL", "state_name": " IL"}, {"lat": 38.6825502, "lon": -90.1570536, "name": "Madison , IL", "state_name": " IL"}, {"lat": 37.7306054, "lon": -88.9331256, "name": "Marion , IL", "state_name": " IL"}, {"lat": 39.3914252, "lon": -87.6936384, "name": "Marshall , IL", "state_name": " IL"}, {"lat": 38.9531001, "lon": -88.6236615, "name": "Mason , IL", "state_name": " IL"}, {"lat": 37.2478298, "lon": -88.7493998, "name": "Massac , IL", "state_name": " IL"}, {"lat": 40.0221361, "lon": -89.81303559999999, "name": "Menard , IL", "state_name": " IL"}, {"lat": 41.1985037, "lon": -90.6773046, "name": "Mercer , IL", "state_name": " IL"}, {"lat": 38.2742526, "lon": -90.1869644, "name": "Monroe , IL", "state_name": " IL"}, {"lat": 41.730585, "lon": -88.3459048, "name": "Montgomery , IL", "state_name": " IL"}, {"lat": 39.7341219, "lon": -90.2244662, "name": "Morgan , IL", "state_name": " IL"}, {"lat": 39.6020543, "lon": -88.59517509999999, "name": "Moultrie , IL", "state_name": " IL"}, {"lat": 41.9969811, "lon": -89.3226954, "name": "Ogle , IL", "state_name": " IL"}, {"lat": 40.6936488, "lon": -89.5889864, "name": "Peoria , IL", "state_name": " IL"}, {"lat": 39.7831031, "lon": -90.74540619999999, "name": "Perry , IL", "state_name": " IL"}, {"lat": 40.0543526, "lon": -88.55653099999999, "name": "Piatt , IL", "state_name": " IL"}, {"lat": 39.5662363, "lon": -90.8294002, "name": "Pike , IL", "state_name": " IL"}, {"lat": 37.417132, "lon": -88.59517509999999, "name": "Pope , IL", "state_name": " IL"}, {"lat": 37.2136615, "lon": -89.2059111, "name": "Pulaski , IL", "state_name": " IL"}, {"lat": 41.1850275, "lon": -89.396345, "name": "Putnam , IL", "state_name": " IL"}, {"lat": 40.3761474, "lon": -88.9803558, "name": "Randolph , IL", "state_name": " IL"}, {"lat": 39.845883, "lon": -89.85816319999999, "name": "Richland , IL", "state_name": " IL"}, {"lat": 41.5094771, "lon": -90.5787476, "name": "Rock Island , IL", "state_name": " IL"}, {"lat": 38.40081199999999, "lon": -89.9253233, "name": "St. Clair , IL", "state_name": " IL"}, {"lat": 37.7149675, "lon": -88.55653099999999, "name": "Saline , IL", "state_name": " IL"}, {"lat": 39.7337353, "lon": -89.62516459999999, "name": "Sangamon , IL", "state_name": " IL"}, {"lat": 40.1844543, "lon": -90.6393702, "name": "Schuyler , IL", "state_name": " IL"}, {"lat": 39.6094934, "lon": -90.4879916, "name": "Scott , IL", "state_name": " IL"}, {"lat": 39.3980704, "lon": -88.86469799999999, "name": "Shelby , IL", "state_name": " IL"}, {"lat": 41.0795661, "lon": -89.81303559999999, "name": "Stark , IL", "state_name": " IL"}, {"lat": 42.31448899999999, "lon": -89.62516459999999, "name": "Stephenson , IL", "state_name": " IL"}, {"lat": 40.5522078, "lon": -89.4742177, "name": "Tazewell , IL", "state_name": " IL"}, {"lat": 42.2330782, "lon": -88.5423132, "name": "Union , IL", "state_name": " IL"}, {"lat": 39.5811463, "lon": -87.58891249999999, "name": "Vermilion , IL", "state_name": " IL"}, {"lat": 38.4226484, "lon": -87.8156715, "name": "Wabash , IL", "state_name": " IL"}, {"lat": 42.4963957, "lon": -89.98956810000001, "name": "Warren , IL", "state_name": " IL"}, {"lat": 40.7036482, "lon": -89.4073123, "name": "Washington , IL", "state_name": " IL"}, {"lat": 41.9508336, "lon": -88.242369, "name": "Wayne , IL", "state_name": " IL"}, {"lat": 38.0501137, "lon": -88.24611829999999, "name": "White , IL", "state_name": " IL"}, {"lat": 41.7605503, "lon": -89.8505012, "name": "Whiteside , IL", "state_name": " IL"}, {"lat": 41.5054724, "lon": -88.0900762, "name": "Will , IL", "state_name": " IL"}, {"lat": 38.9856018, "lon": -89.7639829, "name": "Williamson , IL", "state_name": " IL"}, {"lat": 42.2661311, "lon": -89.2412202, "name": "Winnebago , IL", "state_name": " IL"}, {"lat": 40.8467007, "lon": -89.028132, "name": "Woodford , IL", "state_name": " IL"}, {"lat": 39.3825496, "lon": -85.559973, "name": "Adams , IN", "state_name": " IN"}, {"lat": 41.20004840000001, "lon": -85.1958063, "name": "Allen , IN", "state_name": " IN"}, {"lat": 39.206801, "lon": -85.8895551, "name": "Bartholomew , IN", "state_name": " IN"}, {"lat": 41.509216, "lon": -85.76110159999999, "name": "Benton , IN", "state_name": " IN"}, {"lat": 40.49927840000001, "lon": -85.31362179999999, "name": "Blackford , IN", "state_name": " IN"}, {"lat": 40.0106163, "lon": -86.49965460000001, "name": "Boone , IN", "state_name": " IN"}, {"lat": 39.1749729, "lon": -86.17517590000001, "name": "Brown , IN", "state_name": " IN"}, {"lat": 40.542415, "lon": -86.5400674, "name": "Carroll , IN", "state_name": " IN"}, {"lat": 39.0869874, "lon": -87.27862669999999, "name": "Cass , IN", "state_name": " IN"}, {"lat": 38.4492903, "lon": -85.7256372, "name": "Clark , IN", "state_name": " IN"}, {"lat": 39.36862199999999, "lon": -87.14228949999999, "name": "Clay , IN", "state_name": " IN"}, {"lat": 39.6569817, "lon": -87.3980741, "name": "Clinton , IN", "state_name": " IN"}, {"lat": 38.3054548, "lon": -86.4592091, "name": "Crawford , IN", "state_name": " IN"}, {"lat": 38.7020241, "lon": -87.14228949999999, "name": "Daviess , IN", "state_name": " IN"}, {"lat": 39.1713075, "lon": -84.981754, "name": "Dearborn , IN", "state_name": " IN"}, {"lat": 40.830603, "lon": -84.9291329, "name": "Decatur , IN", "state_name": " IN"}, {"lat": 41.4138928, "lon": -85.02334599999999, "name": "DeKalb , IN", "state_name": " IN"}, {"lat": 39.1478313, "lon": -85.2071816, "name": "Delaware , IN", "state_name": " IN"}, {"lat": 38.4453945, "lon": -86.8041574, "name": "Dubois , IN", "state_name": " IN"}, {"lat": 41.6819935, "lon": -85.9766671, "name": "Elkhart , IN", "state_name": " IN"}, {"lat": 39.9311099, "lon": -86.39721999999999, "name": "Fayette , IN", "state_name": " IN"}, {"lat": 38.2869276, "lon": -85.8895551, "name": "Floyd , IN", "state_name": " IN"}, {"lat": 40.22271970000001, "lon": -87.3347575, "name": "Fountain , IN", "state_name": " IN"}, {"lat": 39.4806055, "lon": -86.0549863, "name": "Franklin , IN", "state_name": " IN"}, {"lat": 40.9472635, "lon": -86.2627772, "name": "Fulton , IN", "state_name": " IN"}, {"lat": 38.3338249, "lon": -87.5791287, "name": "Gibson , IN", "state_name": " IN"}, {"lat": 40.4730605, "lon": -85.684578, "name": "Grant , IN", "state_name": " IN"}, {"lat": 40.4083777, "lon": -85.09996939999999, "name": "Greene , IN", "state_name": " IN"}, {"lat": 41.53366159999999, "lon": -84.9127396, "name": "Hamilton , IN", "state_name": " IN"}, {"lat": 39.8249915, "lon": -85.84862360000001, "name": "Hancock , IN", "state_name": " IN"}, {"lat": 39.52861, "lon": -87.42222, "name": "Harrison , IN", "state_name": " IN"}, {"lat": 39.8064942, "lon": -86.5400674, "name": "Hendricks , IN", "state_name": " IN"}, {"lat": 39.9704844, "lon": -85.35496499999999, "name": "Henry , IN", "state_name": " IN"}, {"lat": 39.9161499, "lon": -87.37557029999999, "name": "Howard , IN", "state_name": " IN"}, {"lat": 40.8831011, "lon": -85.49747599999999, "name": "Huntington , IN", "state_name": " IN"}, {"lat": 38.8794321, "lon": -86.05296039999999, "name": "Jackson , IN", "state_name": " IN"}, {"lat": 38.3914418, "lon": -86.9311094, "name": "Jasper , IN", "state_name": " IN"}, {"lat": 40.4465288, "lon": -85.02334599999999, "name": "Jay , IN", "state_name": " IN"}, {"lat": 40.27944, "lon": -86.58999999999999, "name": "Jefferson , IN", "state_name": " IN"}, {"lat": 38.9914998, "lon": -85.684578, "name": "Jennings , IN", "state_name": " IN"}, {"lat": 39.4637793, "lon": -86.1344697, "name": "Johnson , IN", "state_name": " IN"}, {"lat": 41.2958751, "lon": -86.6250139, "name": "Knox , IN", "state_name": " IN"}, {"lat": 41.2864679, "lon": -85.84862360000001, "name": "Kosciusko , IN", "state_name": " IN"}, {"lat": 41.641717, "lon": -85.4166467, "name": "LaGrange , IN", "state_name": " IN"}, {"lat": 41.4897279, "lon": -87.30161319999999, "name": "Lake , IN", "state_name": " IN"}, {"lat": 41.611143, "lon": -86.7227195, "name": "LaPorte , IN", "state_name": " IN"}, {"lat": 39.8386516, "lon": -86.0252612, "name": "Lawrence , IN", "state_name": " IN"}, {"lat": 38.7358933, "lon": -85.37995769999999, "name": "Madison , IN", "state_name": " IN"}, {"lat": 40.5583739, "lon": -85.6591442, "name": "Marion , IN", "state_name": " IN"}, {"lat": 39.8480969, "lon": -87.18779010000002, "name": "Marshall , IN", "state_name": " IN"}, {"lat": 38.6937856, "lon": -86.8220341, "name": "Martin , IN", "state_name": " IN"}, {"lat": 40.6140514, "lon": -86.1064885, "name": "Miami , IN", "state_name": " IN"}, {"lat": 40.7450468, "lon": -84.9369111, "name": "Monroe , IN", "state_name": " IN"}, {"lat": 38.66254929999999, "lon": -87.0461181, "name": "Montgomery , IN", "state_name": " IN"}, {"lat": 39.51168089999999, "lon": -86.3376761, "name": "Morgan , IN", "state_name": " IN"}, {"lat": 40.9703076, "lon": -87.42075179999999, "name": "Newton , IN", "state_name": " IN"}, {"lat": 40.4694904, "lon": -84.8260749, "name": "Noble , IN", "state_name": " IN"}, {"lat": 40.4172871, "lon": -82.90712300000001, "name": "Ohio , IN", "state_name": " IN"}, {"lat": 39.5842145, "lon": -85.2991328, "name": "Orange , IN", "state_name": " IN"}, {"lat": 39.3603429, "lon": -86.8220341, "name": "Owen , IN", "state_name": " IN"}, {"lat": 39.69929459999999, "lon": -87.14228949999999, "name": "Parke , IN", "state_name": " IN"}, {"lat": 38.0159043, "lon": -86.6611083, "name": "Perry , IN", "state_name": " IN"}, {"lat": 40.124119, "lon": -86.48232999999999, "name": "Pike , IN", "state_name": " IN"}, {"lat": 41.6155937, "lon": -87.07419949999999, "name": "Porter , IN", "state_name": " IN"}, {"lat": 38.0020359, "lon": -87.89424509999999, "name": "Posey , IN", "state_name": " IN"}, {"lat": 40.9957383, "lon": -86.8220341, "name": "Pulaski , IN", "state_name": " IN"}, {"lat": 39.690997, "lon": -86.8220341, "name": "Putnam , IN", "state_name": " IN"}, {"lat": 40.2661553, "lon": -84.9758004, "name": "Randolph , IN", "state_name": " IN"}, {"lat": 39.0986811, "lon": -85.2308414, "name": "Ripley , IN", "state_name": " IN"}, {"lat": 39.6481768, "lon": -85.52002399999999, "name": "Rush , IN", "state_name": " IN"}, {"lat": 38.066082, "lon": -87.64370699999999, "name": "St. Joseph , IN", "state_name": " IN"}, {"lat": 41.741055, "lon": -85.555809, "name": "Scott , IN", "state_name": " IN"}, {"lat": 41.1953592, "lon": -87.3479261, "name": "Shelby , IN", "state_name": " IN"}, {"lat": 39.2867117, "lon": -86.7625058, "name": "Spencer , IN", "state_name": " IN"}, {"lat": 41.2715616, "lon": -86.6207943, "name": "Starke , IN", "state_name": " IN"}, {"lat": 41.6115471, "lon": -84.981754, "name": "Steuben , IN", "state_name": " IN"}, {"lat": 39.0953199, "lon": -87.4058525, "name": "Sullivan , IN", "state_name": " IN"}, {"lat": 38.8419394, "lon": -85.0649071, "name": "Switzerland , IN", "state_name": " IN"}, {"lat": 41.2089559, "lon": -86.11493580000001, "name": "Tippecanoe , IN", "state_name": " IN"}, {"lat": 40.2822598, "lon": -86.04109799999999, "name": "Tipton , IN", "state_name": " IN"}, {"lat": 38.4652211, "lon": -87.4353991, "name": "Union , IN", "state_name": " IN"}, {"lat": 38.0806099, "lon": -87.5791287, "name": "Vanderburgh , IN", "state_name": " IN"}, {"lat": 39.8512139, "lon": -87.48020679999999, "name": "Vermillion , IN", "state_name": " IN"}, {"lat": 39.286121, "lon": -87.53731499999999, "name": "Vigo , IN", "state_name": " IN"}, {"lat": 40.797821, "lon": -85.8205411, "name": "Wabash , IN", "state_name": " IN"}, {"lat": 40.6828226, "lon": -85.4271952, "name": "Warren , IN", "state_name": " IN"}, {"lat": 38.0736703, "lon": -87.2618328, "name": "Warrick , IN", "state_name": " IN"}, {"lat": 38.65921520000001, "lon": -87.172789, "name": "Washington , IN", "state_name": " IN"}, {"lat": 39.831882, "lon": -84.981754, "name": "Wayne , IN", "state_name": " IN"}, {"lat": 40.7778348, "lon": -85.1894045, "name": "Wells , IN", "state_name": " IN"}, {"lat": 40.6765551, "lon": -86.9824288, "name": "White , IN", "state_name": " IN"}, {"lat": 41.1136133, "lon": -85.52002399999999, "name": "Whitley , IN", "state_name": " IN"}, {"lat": 41.50043, "lon": -94.6433504, "name": "Adair , IA", "state_name": " IA"}, {"lat": 41.0652066, "lon": -94.6863782, "name": "Adams , IA", "state_name": " IA"}, {"lat": 43.2430754, "lon": -91.44346900000001, "name": "Allamakee , IA", "state_name": " IA"}, {"lat": 40.6806102, "lon": -92.8577105, "name": "Appanoose , IA", "state_name": " IA"}, {"lat": 41.7180421, "lon": -94.93248679999999, "name": "Audubon , IA", "state_name": " IA"}, {"lat": 40.7033242, "lon": -94.3582909, "name": "Benton , IA", "state_name": " IA"}, {"lat": 42.447804, "lon": -92.38136209999999, "name": "Black Hawk , IA", "state_name": " IA"}, {"lat": 42.0597047, "lon": -93.8802273, "name": "Boone , IA", "state_name": " IA"}, {"lat": 42.7733139, "lon": -92.3949044, "name": "Bremer , IA", "state_name": " IA"}, {"lat": 41.7650194, "lon": -91.24682849999999, "name": "Buchanan , IA", "state_name": " IA"}, {"lat": 42.6705452, "lon": -95.1432068, "name": "Buena Vista , IA", "state_name": " IA"}, {"lat": 42.7502186, "lon": -92.8577105, "name": "Butler , IA", "state_name": " IA"}, {"lat": 41.6316573, "lon": -95.8952879, "name": "Calhoun , IA", "state_name": " IA"}, {"lat": 42.0655986, "lon": -94.86727929999999, "name": "Carroll , IA", "state_name": " IA"}, {"lat": 42.194721, "lon": -91.34571439999999, "name": "Cass , IA", "state_name": " IA"}, {"lat": 41.2122326, "lon": -92.525745, "name": "Cedar , IA", "state_name": " IA"}, {"lat": 43.1543186, "lon": -93.20296750000001, "name": "Cerro Gordo , IA", "state_name": " IA"}, {"lat": 42.7496413, "lon": -95.55154309999999, "name": "Cherokee , IA", "state_name": " IA"}, {"lat": 43.0338635, "lon": -92.495182, "name": "Chickasaw , IA", "state_name": " IA"}, {"lat": 41.01778360000001, "lon": -93.7841503, "name": "Clarke , IA", "state_name": " IA"}, {"lat": 43.1368038, "lon": -95.1432068, "name": "Clay , IA", "state_name": " IA"}, {"lat": 42.9038759, "lon": -91.1473518, "name": "Clayton , IA", "state_name": " IA"}, {"lat": 41.8444735, "lon": -90.1887379, "name": "Clinton , IA", "state_name": " IA"}, {"lat": 42.034686, "lon": -95.3102505, "name": "Crawford , IA", "state_name": " IA"}, {"lat": 41.2249966, "lon": -93.2413191, "name": "Dallas , IA", "state_name": " IA"}, {"lat": 40.6913838, "lon": -92.38136209999999, "name": "Davis , IA", "state_name": " IA"}, {"lat": 40.7419443, "lon": -93.83383459999999, "name": "Decatur , IA", "state_name": " IA"}, {"lat": 42.4752682, "lon": -91.34542139999999, "name": "Delaware , IA", "state_name": " IA"}, {"lat": 41.6005448, "lon": -93.6091064, "name": "Des Moines , IA", "state_name": " IA"}, {"lat": 43.4049388, "lon": -95.18492189999999, "name": "Dickinson , IA", "state_name": " IA"}, {"lat": 42.5005583, "lon": -90.66457179999999, "name": "Dubuque , IA", "state_name": " IA"}, {"lat": 43.34943, "lon": -94.6863782, "name": "Emmet , IA", "state_name": " IA"}, {"lat": 42.84192549999999, "lon": -91.8021071, "name": "Fayette , IA", "state_name": " IA"}, {"lat": 43.1277502, "lon": -92.7363031, "name": "Floyd , IA", "state_name": " IA"}, {"lat": 42.7372361, "lon": -93.33889169999999, "name": "Franklin , IA", "state_name": " IA"}, {"lat": 41.2125116, "lon": -92.4354648, "name": "Fremont , IA", "state_name": " IA"}, {"lat": 42.8958066, "lon": -92.80241579999999, "name": "Greene , IA", "state_name": " IA"}, {"lat": 42.4369506, "lon": -92.8577105, "name": "Grundy , IA", "state_name": " IA"}, {"lat": 41.7530909, "lon": -94.479976, "name": "Guthrie , IA", "state_name": " IA"}, {"lat": 41.1699246, "lon": -92.90348759999999, "name": "Hamilton , IA", "state_name": " IA"}, {"lat": 41.3901703, "lon": -95.3633591, "name": "Hancock , IA", "state_name": " IA"}, {"lat": 43.0802588, "lon": -91.4843083, "name": "Hardin , IA", "state_name": " IA"}, {"lat": 41.6933855, "lon": -95.81428849999999, "name": "Harrison , IA", "state_name": " IA"}, {"lat": 41.0283603, "lon": -91.5983959, "name": "Henry , IA", "state_name": " IA"}, {"lat": 43.3819496, "lon": -92.38136209999999, "name": "Howard , IA", "state_name": " IA"}, {"lat": 42.7208047, "lon": -94.2152402, "name": "Humboldt , IA", "state_name": " IA"}, {"lat": 42.3418685, "lon": -95.4777811, "name": "Ida , IA", "state_name": " IA"}, {"lat": 41.6624604, "lon": -92.0665197, "name": "Iowa , IA", "state_name": " IA"}, {"lat": 42.1560699, "lon": -90.52578229999999, "name": "Jackson , IA", "state_name": " IA"}, {"lat": 41.6414924, "lon": -93.0175712, "name": "Jasper , IA", "state_name": " IA"}, {"lat": 42.0172457, "lon": -94.3774232, "name": "Jefferson , IA", "state_name": " IA"}, {"lat": 41.6698982, "lon": -91.5983959, "name": "Johnson , IA", "state_name": " IA"}, {"lat": 42.1516737, "lon": -91.13530200000001, "name": "Jones , IA", "state_name": " IA"}, {"lat": 40.4044731, "lon": -91.3963966, "name": "Keokuk , IA", "state_name": " IA"}, {"lat": 41.0105906, "lon": -91.1345917, "name": "Kossuth , IA", "state_name": " IA"}, {"lat": 40.70686630000001, "lon": -91.44346900000001, "name": "Lee , IA", "state_name": " IA"}, {"lat": 42.0659844, "lon": -91.67606909999999, "name": "Linn , IA", "state_name": " IA"}, {"lat": 41.19330009999999, "lon": -91.28910359999999, "name": "Louisa , IA", "state_name": " IA"}, {"lat": 41.0274991, "lon": -93.4599348, "name": "Lucas , IA", "state_name": " IA"}, {"lat": 43.3954333, "lon": -96.15269850000001, "name": "Lyon , IA", "state_name": " IA"}, {"lat": 41.2922367, "lon": -93.9878427, "name": "Madison , IA", "state_name": " IA"}, {"lat": 41.32958800000001, "lon": -92.6983868, "name": "Mahaska , IA", "state_name": " IA"}, {"lat": 42.033279, "lon": -91.5968958, "name": "Marion , IA", "state_name": " IA"}, {"lat": 42.0407088, "lon": -92.9375739, "name": "Marshall , IA", "state_name": " IA"}, {"lat": 41.0624496, "lon": -95.6457951, "name": "Mills , IA", "state_name": " IA"}, {"lat": 43.3216363, "lon": -92.86686209999999, "name": "Mitchell , IA", "state_name": " IA"}, {"lat": 43.0516494, "lon": -91.38930409999999, "name": "Monona , IA", "state_name": " IA"}, {"lat": 41.5208256, "lon": -93.1038129, "name": "Monroe , IA", "state_name": " IA"}, {"lat": 43.44127410000001, "lon": -95.2025451, "name": "Montgomery , IA", "state_name": " IA"}, {"lat": 41.424473, "lon": -91.0432051, "name": "Muscatine , IA", "state_name": " IA"}, {"lat": 43.1131245, "lon": -95.6457951, "name": "O'Brien , IA", "state_name": " IA"}, {"lat": 41.0342618, "lon": -93.766759, "name": "Osceola , IA", "state_name": " IA"}, {"lat": 40.7635099, "lon": -95.1432068, "name": "Page , IA", "state_name": " IA"}, {"lat": 43.1580878, "lon": -94.645035, "name": "Palo Alto , IA", "state_name": " IA"}, {"lat": 43.2446852, "lon": -93.1215924, "name": "Plymouth , IA", "state_name": " IA"}, {"lat": 42.7355299, "lon": -94.66914670000001, "name": "Pocahontas , IA", "state_name": " IA"}, {"lat": 41.6278423, "lon": -93.5003454, "name": "Polk , IA", "state_name": " IA"}, {"lat": 41.3911501, "lon": -95.4777811, "name": "Pottawattamie , IA", "state_name": " IA"}, {"lat": 41.6530119, "lon": -92.539603, "name": "Poweshiek , IA", "state_name": " IA"}, {"lat": 40.7973811, "lon": -94.315422, "name": "Ringgold , IA", "state_name": " IA"}, {"lat": 42.3573517, "lon": -95.1432068, "name": "Sac , IA", "state_name": " IA"}, {"lat": 42.7019277, "lon": -91.76544109999999, "name": "Scott , IA", "state_name": " IA"}, {"lat": 41.5161017, "lon": -95.45027999999999, "name": "Shelby , IA", "state_name": " IA"}, {"lat": 42.4999942, "lon": -96.40030689999999, "name": "Sioux , IA", "state_name": " IA"}, {"lat": 42.1040438, "lon": -93.5003454, "name": "Story , IA", "state_name": " IA"}, {"lat": 41.9627392, "lon": -92.576753, "name": "Tama , IA", "state_name": " IA"}, {"lat": 40.7846069, "lon": -94.645035, "name": "Taylor , IA", "state_name": " IA"}, {"lat": 42.2455405, "lon": -93.06464679999999, "name": "Union , IA", "state_name": " IA"}, {"lat": 42.0844668, "lon": -90.3648525, "name": "Van Buren , IA", "state_name": " IA"}, {"lat": 41.18141929999999, "lon": -91.1854273, "name": "Wapello , IA", "state_name": " IA"}, {"lat": 41.30805489999999, "lon": -93.5003454, "name": "Warren , IA", "state_name": " IA"}, {"lat": 41.30140770000001, "lon": -91.69164169999999, "name": "Washington , IA", "state_name": " IA"}, {"lat": 40.6677356, "lon": -93.33889169999999, "name": "Wayne , IA", "state_name": " IA"}, {"lat": 41.4383427, "lon": -92.1690689, "name": "Webster , IA", "state_name": " IA"}, {"lat": 43.3481922, "lon": -93.66232389999999, "name": "Winnebago , IA", "state_name": " IA"}, {"lat": 43.2362611, "lon": -91.9099238, "name": "Winneshiek , IA", "state_name": " IA"}, {"lat": 42.3166158, "lon": -95.9832577, "name": "Woodbury , IA", "state_name": " IA"}, {"lat": 43.3580686, "lon": -93.33889169999999, "name": "Worth , IA", "state_name": " IA"}, {"lat": 41.2491766, "lon": -92.5260229, "name": "Wright , IA", "state_name": " IA"}, {"lat": 38.6561191, "lon": -96.1697173, "name": "Allen , KS", "state_name": " KS"}, {"lat": 38.2809328, "lon": -95.3102505, "name": "Anderson , KS", "state_name": " KS"}, {"lat": 39.5630521, "lon": -95.12163559999999, "name": "Atchison , KS", "state_name": " KS"}, {"lat": 37.5678243, "lon": -94.64857099999999, "name": "Barber , KS", "state_name": " KS"}, {"lat": 38.3613844, "lon": -98.7651482, "name": "Barton , KS", "state_name": " KS"}, {"lat": 37.7957092, "lon": -94.81059549999999, "name": "Bourbon , KS", "state_name": " KS"}, {"lat": 39.770047, "lon": -95.4777811, "name": "Brown , KS", "state_name": " KS"}, {"lat": 37.8649441, "lon": -96.83509989999999, "name": "Butler , KS", "state_name": " KS"}, {"lat": 38.355011, "lon": -98.3495111, "name": "Chase , KS", "state_name": " KS"}, {"lat": 37.0203354, "lon": -96.17665590000001, "name": "Chautauqua , KS", "state_name": " KS"}, {"lat": 37.3458874, "lon": -94.80885040000001, "name": "Cherokee , KS", "state_name": " KS"}, {"lat": 39.7877848, "lon": -101.7979613, "name": "Cheyenne , KS", "state_name": " KS"}, {"lat": 37.3158895, "lon": -99.8124935, "name": "Clark , KS", "state_name": " KS"}, {"lat": 39.34791999999999, "lon": -97.179026, "name": "Clay , KS", "state_name": " KS"}, {"lat": 39.4795571, "lon": -97.69822719999999, "name": "Cloud , KS", "state_name": " KS"}, {"lat": 38.2570639, "lon": -95.81428849999999, "name": "Coffey , KS", "state_name": " KS"}, {"lat": 37.1894543, "lon": -99.2785583, "name": "Comanche , KS", "state_name": " KS"}, {"lat": 37.2660235, "lon": -96.9209135, "name": "Cowley , KS", "state_name": " KS"}, {"lat": 38.514301, "lon": -98.034058, "name": "Crawford , KS", "state_name": " KS"}, {"lat": 39.74803680000001, "lon": -100.5296115, "name": "Decatur , KS", "state_name": " KS"}, {"lat": 38.85059770000001, "lon": -97.179026, "name": "Dickinson , KS", "state_name": " KS"}, {"lat": 39.641667, "lon": -95.080556, "name": "Doniphan , KS", "state_name": " KS"}, {"lat": 38.9107835, "lon": -95.26844369999999, "name": "Douglas , KS", "state_name": " KS"}, {"lat": 37.865958, "lon": -99.2785583, "name": "Edwards , KS", "state_name": " KS"}, {"lat": 37.3936365, "lon": -96.15269850000001, "name": "Elk , KS", "state_name": " KS"}, {"lat": 38.9380662, "lon": -99.56066690000002, "name": "Ellis , KS", "state_name": " KS"}, {"lat": 38.7305648, "lon": -98.22811259999999, "name": "Ellsworth , KS", "state_name": " KS"}, {"lat": 38.0625252, "lon": -100.8903099, "name": "Finney , KS", "state_name": " KS"}, {"lat": 37.6361315, "lon": -99.7540159, "name": "Ford , KS", "state_name": " KS"}, {"lat": 37.5244779, "lon": -94.70495919999999, "name": "Franklin , KS", "state_name": " KS"}, {"lat": 38.9984685, "lon": -96.79223549999999, "name": "Geary , KS", "state_name": " KS"}, {"lat": 38.9590176, "lon": -100.4877663, "name": "Gove , KS", "state_name": " KS"}, {"lat": 39.3198302, "lon": -99.8124935, "name": "Graham , KS", "state_name": " KS"}, {"lat": 39.1186194, "lon": -98.3336698, "name": "Grant , KS", "state_name": " KS"}, {"lat": 38.1583499, "lon": -99.6420656, "name": "Gray , KS", "state_name": " KS"}, {"lat": 38.3666861, "lon": -95.12691559999999, "name": "Greeley , KS", "state_name": " KS"}, {"lat": 37.9025905, "lon": -96.15269850000001, "name": "Greenwood , KS", "state_name": " KS"}, {"lat": 37.9794705, "lon": -96.1641647, "name": "Hamilton , KS", "state_name": " KS"}, {"lat": 37.2866863, "lon": -98.02589449999999, "name": "Harper , KS", "state_name": " KS"}, {"lat": 38.0025215, "lon": -97.35165579999999, "name": "Harvey , KS", "state_name": " KS"}, {"lat": 37.5588285, "lon": -100.8903099, "name": "Haskell , KS", "state_name": " KS"}, {"lat": 38.1429747, "lon": -99.99122539999999, "name": "Hodgeman , KS", "state_name": " KS"}, {"lat": 39.4241422, "lon": -95.81428849999999, "name": "Jackson , KS", "state_name": " KS"}, {"lat": 39.2827652, "lon": -95.3102505, "name": "Jefferson , KS", "state_name": " KS"}, {"lat": 39.671399, "lon": -98.153661, "name": "Jewell , KS", "state_name": " KS"}, {"lat": 37.5703377, "lon": -101.7506777, "name": "Johnson , KS", "state_name": " KS"}, {"lat": 38.0281402, "lon": -101.2523792, "name": "Kearny , KS", "state_name": " KS"}, {"lat": 37.6458491, "lon": -98.1136734, "name": "Kingman , KS", "state_name": " KS"}, {"lat": 37.0172493, "lon": -98.48535389999999, "name": "Kiowa , KS", "state_name": " KS"}, {"lat": 37.2306195, "lon": -95.18357879999999, "name": "Labette , KS", "state_name": " KS"}, {"lat": 38.4397392, "lon": -95.0821916, "name": "Lane , KS", "state_name": " KS"}, {"lat": 39.3111112, "lon": -94.9224637, "name": "Leavenworth , KS", "state_name": " KS"}, {"lat": 39.0403293, "lon": -98.14769650000001, "name": "Lincoln , KS", "state_name": " KS"}, {"lat": 39.6800019, "lon": -97.08419180000001, "name": "Linn , KS", "state_name": " KS"}, {"lat": 39.6616746, "lon": -99.57038539999999, "name": "Logan , KS", "state_name": " KS"}, {"lat": 38.4078037, "lon": -96.15269850000001, "name": "Lyon , KS", "state_name": " KS"}, {"lat": 38.3708415, "lon": -97.66420869999999, "name": "McPherson , KS", "state_name": " KS"}, {"lat": 38.3483493, "lon": -97.017245, "name": "Marion , KS", "state_name": " KS"}, {"lat": 39.717719, "lon": -96.49297969999999, "name": "Marshall , KS", "state_name": " KS"}, {"lat": 37.2855796, "lon": -100.3401456, "name": "Meade , KS", "state_name": " KS"}, {"lat": 38.6381689, "lon": -94.81059549999999, "name": "Miami , KS", "state_name": " KS"}, {"lat": 38.3838988, "lon": -98.09977789999999, "name": "Mitchell , KS", "state_name": " KS"}, {"lat": 37.240253, "lon": -95.81428849999999, "name": "Montgomery , KS", "state_name": " KS"}, {"lat": 38.7144832, "lon": -96.663812, "name": "Morris , KS", "state_name": " KS"}, {"lat": 37.1333387, "lon": -101.7979613, "name": "Morton , KS", "state_name": " KS"}, {"lat": 39.7451077, "lon": -95.9832577, "name": "Nemaha , KS", "state_name": " KS"}, {"lat": 37.6045688, "lon": -95.3102505, "name": "Neosho , KS", "state_name": " KS"}, {"lat": 38.4769509, "lon": -99.99122539999999, "name": "Ness , KS", "state_name": " KS"}, {"lat": 39.8338946, "lon": -99.89151129999999, "name": "Norton , KS", "state_name": " KS"}, {"lat": 38.6009003, "lon": -95.6457951, "name": "Osage , KS", "state_name": " KS"}, {"lat": 39.4388993, "lon": -98.6947949, "name": "Osborne , KS", "state_name": " KS"}, {"lat": 38.615768, "lon": -95.2686366, "name": "Ottawa , KS", "state_name": " KS"}, {"lat": 38.2017581, "lon": -99.2785583, "name": "Pawnee , KS", "state_name": " KS"}, {"lat": 39.766638, "lon": -99.3673084, "name": "Phillips , KS", "state_name": " KS"}, {"lat": 39.3976344, "lon": -96.3226072, "name": "Pottawatomie , KS", "state_name": " KS"}, {"lat": 37.6439071, "lon": -98.73759109999999, "name": "Pratt , KS", "state_name": " KS"}, {"lat": 39.8600904, "lon": -101.0711758, "name": "Rawlins , KS", "state_name": " KS"}, {"lat": 39.05111309999999, "lon": -95.11996979999999, "name": "Reno , KS", "state_name": " KS"}, {"lat": 39.9236213, "lon": -97.82170959999999, "name": "Republic , KS", "state_name": " KS"}, {"lat": 39.5722226, "lon": -97.5555928, "name": "Rice , KS", "state_name": " KS"}, {"lat": 39.29888529999999, "lon": -96.8308436, "name": "Riley , KS", "state_name": " KS"}, {"lat": 39.3638509, "lon": -99.2785583, "name": "Rooks , KS", "state_name": " KS"}, {"lat": 38.5358968, "lon": -99.2785583, "name": "Rush , KS", "state_name": " KS"}, {"lat": 38.8952893, "lon": -98.8598061, "name": "Russell , KS", "state_name": " KS"}, {"lat": 38.8174853, "lon": -97.69822719999999, "name": "Saline , KS", "state_name": " KS"}, {"lat": 38.562531, "lon": -100.8903099, "name": "Scott , KS", "state_name": " KS"}, {"lat": 37.9166784, "lon": -97.422541, "name": "Sedgwick , KS", "state_name": " KS"}, {"lat": 38.1777913, "lon": -98.7948107, "name": "Seward , KS", "state_name": " KS"}, {"lat": 39.02284849999999, "lon": -94.7151865, "name": "Shawnee , KS", "state_name": " KS"}, {"lat": 39.3470831, "lon": -100.439656, "name": "Sheridan , KS", "state_name": " KS"}, {"lat": 39.29821889999999, "lon": -101.7979613, "name": "Sherman , KS", "state_name": " KS"}, {"lat": 39.7333849, "lon": -98.7481167, "name": "Smith , KS", "state_name": " KS"}, {"lat": 37.9622371, "lon": -98.60063749999999, "name": "Stafford , KS", "state_name": " KS"}, {"lat": 38.5433469, "lon": -95.05441259999999, "name": "Stanton , KS", "state_name": " KS"}, {"lat": 37.186894, "lon": -101.2523792, "name": "Stevens , KS", "state_name": " KS"}, {"lat": 37.2236052, "lon": -97.6114217, "name": "Sumner , KS", "state_name": " KS"}, {"lat": 39.3702882, "lon": -101.0711758, "name": "Thomas , KS", "state_name": " KS"}, {"lat": 38.9900316, "lon": -99.8124935, "name": "Trego , KS", "state_name": " KS"}, {"lat": 39.1461086, "lon": -96.346109, "name": "Wabaunsee , KS", "state_name": " KS"}, {"lat": 38.9113982, "lon": -101.5915562, "name": "Wallace , KS", "state_name": " KS"}, {"lat": 39.8180592, "lon": -97.0508605, "name": "Washington , KS", "state_name": " KS"}, {"lat": 37.68717609999999, "lon": -97.33005299999999, "name": "Wichita , KS", "state_name": " KS"}, {"lat": 38.8250106, "lon": -98.4753437, "name": "Wilson , KS", "state_name": " KS"}, {"lat": 37.9197853, "lon": -95.81428849999999, "name": "Woodson , KS", "state_name": " KS"}, {"lat": 39.0986811, "lon": -94.7691586, "name": "Wyandotte , KS", "state_name": " KS"}, {"lat": 37.9506102, "lon": -86.82665689999999, "name": "Adair , KY", "state_name": " KY"}, {"lat": 37.6100457, "lon": -82.7279705, "name": "Allen , KY", "state_name": " KY"}, {"lat": 37.0180991, "lon": -86.7997175, "name": "Anderson , KY", "state_name": " KY"}, {"lat": 37.0359869, "lon": -89.0179332, "name": "Ballard , KY", "state_name": " KY"}, {"lat": 36.9676836, "lon": -85.84862360000001, "name": "Barren , KY", "state_name": " KY"}, {"lat": 37.24259960000001, "lon": -82.9112719, "name": "Bath , KY", "state_name": " KY"}, {"lat": 36.741122, "lon": -83.63484299999999, "name": "Bell , KY", "state_name": " KY"}, {"lat": 38.9940572, "lon": -84.7315563, "name": "Boone , KY", "state_name": " KY"}, {"lat": 38.2170752, "lon": -84.2278796, "name": "Bourbon , KY", "state_name": " KY"}, {"lat": 38.3833265, "lon": -82.6915429, "name": "Boyd , KY", "state_name": " KY"}, {"lat": 37.6526034, "lon": -84.8150781, "name": "Boyle , KY", "state_name": " KY"}, {"lat": 38.7117016, "lon": -84.05902900000001, "name": "Bracken , KY", "state_name": " KY"}, {"lat": 37.5359616, "lon": -83.33618799999999, "name": "Breathitt , KY", "state_name": " KY"}, {"lat": 37.7982002, "lon": -86.4592091, "name": "Breckinridge , KY", "state_name": " KY"}, {"lat": 37.9842107, "lon": -85.684578, "name": "Bullitt , KY", "state_name": " KY"}, {"lat": 38.7864569, "lon": -84.36965939999999, "name": "Butler , KY", "state_name": " KY"}, {"lat": 37.1501019, "lon": -87.89424509999999, "name": "Caldwell , KY", "state_name": " KY"}, {"lat": 36.6402766, "lon": -88.28504199999999, "name": "Calloway , KY", "state_name": " KY"}, {"lat": 38.8951891, "lon": -84.3962535, "name": "Campbell , KY", "state_name": " KY"}, {"lat": 38.3120197, "lon": -84.027427, "name": "Carlisle , KY", "state_name": " KY"}, {"lat": 38.6748355, "lon": -85.0649071, "name": "Carroll , KY", "state_name": " KY"}, {"lat": 38.4289683, "lon": -83.1207313, "name": "Carter , KY", "state_name": " KY"}, {"lat": 37.3157449, "lon": -84.8984775, "name": "Casey , KY", "state_name": " KY"}, {"lat": 36.8410586, "lon": -87.460397, "name": "Christian , KY", "state_name": " KY"}, {"lat": 37.959945, "lon": -84.14351359999999, "name": "Clark , KY", "state_name": " KY"}, {"lat": 37.4767119, "lon": -87.8200159, "name": "Clay , KY", "state_name": " KY"}, {"lat": 36.6672813, "lon": -88.9933965, "name": "Clinton , KY", "state_name": " KY"}, {"lat": 38.7828437, "lon": -84.6052206, "name": "Crittenden , KY", "state_name": " KY"}, {"lat": 36.9781475, "lon": -82.9884955, "name": "Cumberland , KY", "state_name": " KY"}, {"lat": 37.7307984, "lon": -87.10237459999999, "name": "Daviess , KY", "state_name": " KY"}, {"lat": 37.1941682, "lon": -86.21584969999999, "name": "Edmonson , KY", "state_name": " KY"}, {"lat": 38.1575088, "lon": -83.12200740000002, "name": "Elliott , KY", "state_name": " KY"}, {"lat": 37.4570438, "lon": -82.8187717, "name": "Estill , KY", "state_name": " KY"}, {"lat": 38.06064780000001, "lon": -84.4802606, "name": "Fayette , KY", "state_name": " KY"}, {"lat": 38.3987633, "lon": -83.67739279999999, "name": "Fleming , KY", "state_name": " KY"}, {"lat": 37.5455463, "lon": -82.7778579, "name": "Floyd , KY", "state_name": " KY"}, {"lat": 36.722263, "lon": -86.57721769999999, "name": "Franklin , KY", "state_name": " KY"}, {"lat": 36.5042277, "lon": -88.8742259, "name": "Fulton , KY", "state_name": " KY"}, {"lat": 38.7295069, "lon": -84.87763919999999, "name": "Gallatin , KY", "state_name": " KY"}, {"lat": 37.1237006, "lon": -83.746308, "name": "Garrard , KY", "state_name": " KY"}, {"lat": 38.6565245, "lon": -84.6479124, "name": "Grant , KY", "state_name": " KY"}, {"lat": 36.6887728, "lon": -88.7108964, "name": "Graves , KY", "state_name": " KY"}, {"lat": 38.3325812, "lon": -82.9485023, "name": "Grayson , KY", "state_name": " KY"}, {"lat": 37.2570117, "lon": -85.56121, "name": "Green , KY", "state_name": " KY"}, {"lat": 38.5731349, "lon": -82.83016769999999, "name": "Greenup , KY", "state_name": " KY"}, {"lat": 37.8280909, "lon": -86.761749, "name": "Hancock , KY", "state_name": " KY"}, {"lat": 36.7647773, "lon": -88.2953134, "name": "Hardin , KY", "state_name": " KY"}, {"lat": 36.8431441, "lon": -83.321848, "name": "Harlan , KY", "state_name": " KY"}, {"lat": 38.4333045, "lon": -84.3542049, "name": "Harrison , KY", "state_name": " KY"}, {"lat": 37.3101304, "lon": -85.84862360000001, "name": "Hart , KY", "state_name": " KY"}, {"lat": 37.8361538, "lon": -87.59001339999999, "name": "Henderson , KY", "state_name": " KY"}, {"lat": 38.4268385, "lon": -85.14793639999999, "name": "Henry , KY", "state_name": " KY"}, {"lat": 36.5711721, "lon": -89.18617909999999, "name": "Hickman , KY", "state_name": " KY"}, {"lat": 37.3153093, "lon": -87.5791287, "name": "Hopkins , KY", "state_name": " KY"}, {"lat": 37.5531457, "lon": -83.38351349999999, "name": "Jackson , KY", "state_name": " KY"}, {"lat": 38.1938097, "lon": -85.64348700000001, "name": "Jefferson , KY", "state_name": " KY"}, {"lat": 37.895573, "lon": -84.56414699999999, "name": "Jessamine , KY", "state_name": " KY"}, {"lat": 37.8048335, "lon": -82.8640623, "name": "Johnson , KY", "state_name": " KY"}, {"lat": 38.8683985, "lon": -84.45605069999999, "name": "Kenton , KY", "state_name": " KY"}, {"lat": 37.3461117, "lon": -82.99316069999999, "name": "Knott , KY", "state_name": " KY"}, {"lat": 36.9260578, "lon": -83.8897057, "name": "Knox , KY", "state_name": " KY"}, {"lat": 37.5189552, "lon": -85.7256372, "name": "Larue , KY", "state_name": " KY"}, {"lat": 37.0693489, "lon": -84.1857115, "name": "Laurel , KY", "state_name": " KY"}, {"lat": 38.05267500000001, "lon": -82.7778579, "name": "Lawrence , KY", "state_name": " KY"}, {"lat": 37.599443, "lon": -83.7199136, "name": "Lee , KY", "state_name": " KY"}, {"lat": 37.0698286, "lon": -83.3789389, "name": "Leslie , KY", "state_name": " KY"}, {"lat": 37.1450963, "lon": -82.9590507, "name": "Letcher , KY", "state_name": " KY"}, {"lat": 38.5079686, "lon": -83.3789389, "name": "Lewis , KY", "state_name": " KY"}, {"lat": 37.4751264, "lon": -84.6479124, "name": "Lincoln , KY", "state_name": " KY"}, {"lat": 37.2978634, "lon": -84.2149339, "name": "Livingston , KY", "state_name": " KY"}, {"lat": 36.869834, "lon": -86.86218269999999, "name": "Logan , KY", "state_name": " KY"}, {"lat": 37.0247261, "lon": -88.0900762, "name": "Lyon , KY", "state_name": " KY"}, {"lat": 37.03306070000001, "lon": -88.7108964, "name": "McCracken , KY", "state_name": " KY"}, {"lat": 36.6973499, "lon": -84.4802606, "name": "McCreary , KY", "state_name": " KY"}, {"lat": 37.5644352, "lon": -87.2618328, "name": "McLean , KY", "state_name": " KY"}, {"lat": 37.7143001, "lon": -84.3121264, "name": "Madison , KY", "state_name": " KY"}, {"lat": 37.730555, "lon": -83.03613759999999, "name": "Magoffin , KY", "state_name": " KY"}, {"lat": 37.3328286, "lon": -88.0811349, "name": "Marion , KY", "state_name": " KY"}, {"lat": 36.8573767, "lon": -88.4016041, "name": "Marshall , KY", "state_name": " KY"}, {"lat": 37.5728764, "lon": -82.752659, "name": "Martin , KY", "state_name": " KY"}, {"lat": 38.5761806, "lon": -84.5852209, "name": "Mason , KY", "state_name": " KY"}, {"lat": 37.9601502, "lon": -86.21584969999999, "name": "Meade , KY", "state_name": " KY"}, {"lat": 37.9335368, "lon": -83.63484299999999, "name": "Menifee , KY", "state_name": " KY"}, {"lat": 37.8258603, "lon": -84.8984775, "name": "Mercer , KY", "state_name": " KY"}, {"lat": 37.0032438, "lon": -85.64348700000001, "name": "Metcalfe , KY", "state_name": " KY"}, {"lat": 36.7484915, "lon": -85.7256372, "name": "Monroe , KY", "state_name": " KY"}, {"lat": 38.0314578, "lon": -83.8897057, "name": "Montgomery , KY", "state_name": " KY"}, {"lat": 38.6028489, "lon": -84.3988272, "name": "Morgan , KY", "state_name": " KY"}, {"lat": 37.17725009999999, "lon": -87.14228949999999, "name": "Muhlenberg , KY", "state_name": " KY"}, {"lat": 37.7647455, "lon": -85.47880649999999, "name": "Nelson , KY", "state_name": " KY"}, {"lat": 38.37676250000001, "lon": -84.05902900000001, "name": "Nicholas , KY", "state_name": " KY"}, {"lat": 37.5108523, "lon": -86.8220341, "name": "Ohio , KY", "state_name": " KY"}, {"lat": 38.3560025, "lon": -85.47880649999999, "name": "Oldham , KY", "state_name": " KY"}, {"lat": 38.5048121, "lon": -84.6021872, "name": "Owen , KY", "state_name": " KY"}, {"lat": 37.4294933, "lon": -83.7199136, "name": "Owsley , KY", "state_name": " KY"}, {"lat": 38.4622879, "lon": -85.3035678, "name": "Pendleton , KY", "state_name": " KY"}, {"lat": 37.3160706, "lon": -83.2077645, "name": "Perry , KY", "state_name": " KY"}, {"lat": 37.4842087, "lon": -82.4752757, "name": "Pike , KY", "state_name": " KY"}, {"lat": 37.8380647, "lon": -83.8260884, "name": "Powell , KY", "state_name": " KY"}, {"lat": 37.2089669, "lon": -84.6388326, "name": "Pulaski , KY", "state_name": " KY"}, {"lat": 38.5224338, "lon": -84.0378894, "name": "Robertson , KY", "state_name": " KY"}, {"lat": 36.89977409999999, "lon": -87.9872444, "name": "Rockcastle , KY", "state_name": " KY"}, {"lat": 38.177068, "lon": -83.46435509999999, "name": "Rowan , KY", "state_name": " KY"}, {"lat": 38.5173028, "lon": -82.6976631, "name": "Russell , KY", "state_name": " KY"}, {"lat": 38.3172361, "lon": -84.56414699999999, "name": "Scott , KY", "state_name": " KY"}, {"lat": 38.1778076, "lon": -85.2308414, "name": "Shelby , KY", "state_name": " KY"}, {"lat": 36.7772014, "lon": -86.6207943, "name": "Simpson , KY", "state_name": " KY"}, {"lat": 38.0123167, "lon": -85.31362179999999, "name": "Spencer , KY", "state_name": " KY"}, {"lat": 37.332884, "lon": -85.31362179999999, "name": "Taylor , KY", "state_name": " KY"}, {"lat": 36.8338638, "lon": -87.14228949999999, "name": "Todd , KY", "state_name": " KY"}, {"lat": 36.8473642, "lon": -87.77633329999999, "name": "Trigg , KY", "state_name": " KY"}, {"lat": 37.0120194, "lon": -84.73577630000001, "name": "Trimble , KY", "state_name": " KY"}, {"lat": 38.9458951, "lon": -84.68050099999999, "name": "Union , KY", "state_name": " KY"}, {"lat": 36.9886043, "lon": -86.49965460000001, "name": "Warren , KY", "state_name": " KY"}, {"lat": 37.7516142, "lon": -85.14793639999999, "name": "Washington , KY", "state_name": " KY"}, {"lat": 36.7571907, "lon": -84.8567932, "name": "Wayne , KY", "state_name": " KY"}, {"lat": 37.88895300000001, "lon": -86.3388635, "name": "Webster , KY", "state_name": " KY"}, {"lat": 36.726335, "lon": -84.1857115, "name": "Whitley , KY", "state_name": " KY"}, {"lat": 37.75508689999999, "lon": -83.46435509999999, "name": "Wolfe , KY", "state_name": " KY"}, {"lat": 38.0721662, "lon": -84.7315563, "name": "Woodford , KY", "state_name": " KY"}, {"lat": 30.2297347, "lon": -92.38136209999999, "name": "Acadia Parish, LA", "state_name": " LA"}, {"lat": 30.5887484, "lon": -92.8577105, "name": "Allen Parish, LA", "state_name": " LA"}, {"lat": 30.2017295, "lon": -90.9438468, "name": "Ascension Parish, LA", "state_name": " LA"}, {"lat": 29.9232544, "lon": -91.09693999999999, "name": "Assumption Parish, LA", "state_name": " LA"}, {"lat": 30.9711824, "lon": -92.0665197, "name": "Avoyelles Parish, LA", "state_name": " LA"}, {"lat": 30.7611484, "lon": -93.33889169999999, "name": "Beauregard Parish, LA", "state_name": " LA"}, {"lat": 32.4107403, "lon": -93.0175712, "name": "Bienville Parish, LA", "state_name": " LA"}, {"lat": 32.7551322, "lon": -93.66232389999999, "name": "Bossier Parish, LA", "state_name": " LA"}, {"lat": 32.6136798, "lon": -93.86553029999999, "name": "Caddo Parish, LA", "state_name": " LA"}, {"lat": 30.2089286, "lon": -93.33889169999999, "name": "Calcasieu Parish, LA", "state_name": " LA"}, {"lat": 32.0669717, "lon": -92.0665197, "name": "Caldwell Parish, LA", "state_name": " LA"}, {"lat": 29.8434436, "lon": -93.17796589999999, "name": "Cameron Parish, LA", "state_name": " LA"}, {"lat": 31.7053083, "lon": -91.9099238, "name": "Catahoula Parish, LA", "state_name": " LA"}, {"lat": 32.7722557, "lon": -93.0175712, "name": "Claiborne Parish, LA", "state_name": " LA"}, {"lat": 31.4808983, "lon": -91.63721500000001, "name": "Concordia Parish, LA", "state_name": " LA"}, {"lat": 32.0310567, "lon": -93.66232389999999, "name": "De Soto Parish, LA", "state_name": " LA"}, {"lat": 30.5693593, "lon": -91.09693999999999, "name": "East Baton Rouge Parish, LA", "state_name": " LA"}, {"lat": 32.7570923, "lon": -91.2506002, "name": "East Carroll Parish, LA", "state_name": " LA"},